idAirTable,direccion,fechaDeCarga,barrio,ciudad,cpc,zona,calle,altura,tipo,superficie,piso,dormitorios,categoria,precioUS,latitud,longitud
recikPQWOJA2wjHx5,"Amalia Sanchez Ariño 3700 Ciudad de Cordoba, Provincia de Córdoba, Argentina",6/9/2021,Los Alamos,Ciudad de Cordoba,Centroamérica,Nor Este,Amalia Sanchez Ariño,3609,FORMA PARTE DE UN PH ,81.60,1,2,BAJA,9500,-31.36629540,-64.15941810
recM6OHl05uunCMQn,"Pje GOULD 600 Ciudad de Cordoba, Provincia de Córdoba, Argentina",6/9/2021,Observatorio,Ciudad de Cordoba,Mercado Central,Central,Pje GOULD,556,EDIFICIO DE DEPARTAMENTOS,25.00,2,MONOAMBIENTE,BAJA,12000,-31.42139480,-64.19747890
recIXYEOhuzI9zbAO,"Rincon 300 Ciudad de Cordoba, Provincia de Córdoba, Argentina",1/4/2018,Centro Norte (Av. Colon hacia el Río),Ciudad de Cordoba,Mercado Central,Central,Rincon,210,EDIFICIO DE DEPARTAMENTOS,39.66,1,1,BAJA,18000,-31.41207200,-64.18844570
recRf7Vu7l39FdJvM,"SAN JOSE DE CALAZANS 300 Ciudad de Cordoba, Provincia de Córdoba, Argentina",1/4/2019,Alberdi,Ciudad de Cordoba,Mercado Central,Central,SAN JOSE DE CALAZANS,300,EDIFICIO DE DEPARTAMENTOS,33.00,2,1,BAJA,21000,-31.41484410,-64.19690720
recsbm5OMxOm0Q4AR,"Tucumán 100 Ciudad de Cordoba, Provincia de Córdoba, Argentina",1/4/2018,Centro Sud (Av Colon hacia Nva Cba),Ciudad de Cordoba,Mercado Central,Central,Tucumán,56,EDIFICIO DE DEPARTAMENTOS,39.30,6,MONOAMBIENTE,ESTANDAR,22000,-31.41380290,-64.18758490
recOTcahd8K76N3we,"Mejico 1300 Ciudad de Cordoba, Provincia de Córdoba, Argentina",6/9/2021,General Pueyrredon,Ciudad de Cordoba,Pueyrredon,Este,Mejico,1214,EDIFICIO DE DEPARTAMENTOS,43.32,1,1,ESTANDAR,22500,-31.40017120,-64.16281160
recXgc87nmcveSyF7,"Arturo Oragaz 100 Ciudad de Cordoba, Provincia de Córdoba, Argentina",1/4/2018,Alberdi,Ciudad de Cordoba,Mercado Central,Central,Arturo Oragaz,55,EDIFICIO DE DEPARTAMENTOS,28.00,PLANTA BAJA,1,BAJA,22600,-31.40736070,-64.20854800
recsCv3zdVyC2FJR9,"Mejico 1300 Ciudad de Cordoba, Provincia de Córdoba, Argentina",9/8/2022,General Pueyrredon,Ciudad de Cordoba,Pueyrredon,Este,Mejico,1214,EDIFICIO DE DEPARTAMENTOS,43.60,PLANTA BAJA,1,ESTANDAR,23150,-31.40017120,-64.16281160
recjf1gN9I1WX4JEm,"Mejico 1300 Ciudad de Cordoba, Provincia de Córdoba, Argentina",1/4/2018,General Pueyrredon,Ciudad de Cordoba,Pueyrredon,Este,Mejico,1214,EDIFICIO DE DEPARTAMENTOS,44.31,1,1,ESTANDAR,23150,-31.40017120,-64.16281160
rec2UiKlzhrmQz2kn,"Duarte Quiros 300 Ciudad de Cordoba, Provincia de Córdoba, Argentina",1/4/2018,Centro Sud (Av Colon hacia Nva Cba),Ciudad de Cordoba,Mercado Central,Central,Duarte Quiros,271,EDIFICIO DE DEPARTAMENTOS,35.00,5,MONOAMBIENTE,ESTANDAR,24000,-31.41810470,-64.18947410
recvHsHvHXJlhHZYb,"9 de Julio 1200 Ciudad de Cordoba, Provincia de Córdoba, Argentina",6/9/2021,Alberdi,Ciudad de Cordoba,Mercado Central,Central,9 de Julio,1196,EDIFICIO DE DEPARTAMENTOS,37.00,3,1,ESTANDAR,24000,-31.40986620,-64.19993160
recaIZCYm55Qds8n9,"9 de Julio 1200 Ciudad de Cordoba, Provincia de Córdoba, Argentina",1/4/2018,Alberdi,Ciudad de Cordoba,Mercado Central,Central,9 de Julio,1194,EDIFICIO DE DEPARTAMENTOS,42.00,3,1,ESTANDAR,24000,-31.40986620,-64.19993160
recGOdfQt3QD5lWY1,"SANTA ROSA 1300 Ciudad de Cordoba, Provincia de Córdoba, Argentina",1/4/2019,Alberdi,Ciudad de Cordoba,Mercado Central,Central,SANTA ROSA,1276,EDIFICIO DE DEPARTAMENTOS,30.00,2,1,ESTANDAR,24500,-31.40726410,-64.20045990
recwlrTnMiLkJSwcV,"ANA MARIA JANER 1200 Ciudad de Cordoba, Provincia de Córdoba, Argentina",1/4/2018,General Pueyrredon,Ciudad de Cordoba,Pueyrredon,Este,ANA MARIA JANER,1200,EDIFICIO DE DEPARTAMENTOS,49.66,3,1,ESTANDAR,26000,-31.40188670,-64.16413840
recc476XPFzBz32iB,"San José de Calasanz 200 Ciudad de Cordoba, Provincia de Córdoba, Argentina",7/10/2022,Alberdi,Ciudad de Cordoba,Mercado Central,Central,San José de Calasanz,161,EDIFICIO DE DEPARTAMENTOS,35.00,2,1,BAJA,26500,-31.41463180,-64.19702890
reccHlgRcWKUi5w6S,"Crisol 200 Ciudad de Cordoba, Provincia de Córdoba, Argentina",1/4/2020,Nueva Cordoba,Ciudad de Cordoba,Mercado Central,Central,Crisol,200,EDIFICIO DE DEPARTAMENTOS,21.00,4,MONOAMBIENTE,ESTANDAR,27000,-31.42928250,-64.18670370
rec0ztkcIQ4Ym1Zd4,"BV MITRE  300 Ciudad de Cordoba, Provincia de Córdoba, Argentina",1/4/2018,Centro Norte (Av. Colon hacia el Río),Ciudad de Cordoba,Mercado Central,Central,BV MITRE ,289,EDIFICIO DE DEPARTAMENTOS,30.00,10,MONOAMBIENTE,BAJA,27000,-31.41207200,-64.18844570
recd8ZiTQBcydOfGb,"Duarte Quiros 2600 Ciudad de Cordoba, Provincia de Córdoba, Argentina",1/4/2019,Alto Alberdi,Ciudad de Cordoba,Colón,Oeste,Duarte Quiros,2584,EDIFICIO DE DEPARTAMENTOS,24.00,PLANTA BAJA,MONOAMBIENTE,ESTANDAR,27500,-31.40899580,-64.21778650
recusulcb4lBzeZ76,"Duarte Quiros 2600 Ciudad de Cordoba, Provincia de Córdoba, Argentina",9/8/2022,Alto Alberdi,Ciudad de Cordoba,Colón,Oeste,Duarte Quiros,2584,EDIFICIO DE DEPARTAMENTOS,22.00,PLANTA BAJA,MONOAMBIENTE,ESTANDAR,28000,-31.40899580,-64.21778650
rec9Ncwge8bR8HWki,"CHUBUT 200 Ciudad de Cordoba, Provincia de Córdoba, Argentina",1/4/2019,Alberdi,Ciudad de Cordoba,Mercado Central,Central,CHUBUT,148,EDIFICIO DE DEPARTAMENTOS,35.00,PLANTA BAJA,1,ESTANDAR,28000,-31.40773550,-64.20334890
recJ7CJHGQdRorJ4k,"Misiones 300 Ciudad de Cordoba, Provincia de Córdoba, Argentina",1/4/2018,Alberdi,Ciudad de Cordoba,Mercado Central,Central,Misiones,245,EDIFICIO DE DEPARTAMENTOS,41.32,6,1,ESTANDAR,28000,-31.41358660,-64.20185630
recA5SkqN1oElFbio,"9 de Julio 1200 Ciudad de Cordoba, Provincia de Córdoba, Argentina",1/4/2018,Alberdi,Ciudad de Cordoba,Mercado Central,Central,9 de Julio,1194,EDIFICIO DE DEPARTAMENTOS,42.00,1,1,ESTANDAR,28000,-31.40986620,-64.19993160
rec792HOHhl1K4dVO,"Mejico 1300 Ciudad de Cordoba, Provincia de Córdoba, Argentina",6/9/2021,General Pueyrredon,Ciudad de Cordoba,Pueyrredon,Este,Mejico,1214,EDIFICIO DE DEPARTAMENTOS,44.00,PLANTA BAJA,1,ESTANDAR,28500,-31.40017120,-64.16281160
rec9mJpa6IdwTMdEj,"sucre 100 Ciudad de Cordoba, Provincia de Córdoba, Argentina",1/4/2018,Centro Sud (Av Colon hacia Nva Cba),Ciudad de Cordoba,Mercado Central,Central,sucre,23,EDIFICIO DE DEPARTAMENTOS,27.00,2,1,ESTANDAR,29000,-31.41321950,-64.18883640
recf3ntRwZfLx1NPA,"URQUIZA 300 Ciudad de Cordoba, Provincia de Córdoba, Argentina",1/4/2018,Centro Norte (Av. Colon hacia el Río),Ciudad de Cordoba,Mercado Central,Central,URQUIZA,269,EDIFICIO DE DEPARTAMENTOS,31.00,5,1,ESTANDAR,29000,-31.40945430,-64.19345570
rectL8Xsms7n4bnkE,"27 de Abril 300 Ciudad de Cordoba, Provincia de Córdoba, Argentina",1/4/2019,Centro Sud (Av Colon hacia Nva Cba),Ciudad de Cordoba,Mercado Central,Central,27 de Abril,252,EDIFICIO DE DEPARTAMENTOS,42.00,6,1,ESTANDAR,29000,-31.41207200,-64.18844570
recXPtzbUGUGz9ggJ,"27 de Abril 300 Ciudad de Cordoba, Provincia de Córdoba, Argentina",1/4/2018,Centro Sud (Av Colon hacia Nva Cba),Ciudad de Cordoba,Mercado Central,Central,27 de Abril,252,EDIFICIO DE DEPARTAMENTOS,35.01,6,1,ESTANDAR,30000,-31.41207200,-64.18844570
recpMbPuJ0Mb5eAZf,"San José de Calasanz 100 Ciudad de Cordoba, Provincia de Córdoba, Argentina",6/9/2021,Alberdi,Ciudad de Cordoba,Mercado Central,Central,San José de Calasanz,58,EDIFICIO DE DEPARTAMENTOS,35.33,1,1,ESTANDAR,30000,-31.41344920,-64.19661350
recx38etnCWqxf2M4,"San José de Calasanz 100 Ciudad de Cordoba, Provincia de Córdoba, Argentina",1/4/2020,Alberdi,Ciudad de Cordoba,Mercado Central,Central,San José de Calasanz,58,EDIFICIO DE DEPARTAMENTOS,35.33,1,1,ESTANDAR,30000,-31.41344920,-64.19661350
rec8M2ZyD98pByRoL,"SAN LUIS 700 Ciudad de Cordoba, Provincia de Córdoba, Argentina",7/7/2024,Observatorio,Ciudad de Cordoba,Mercado Central,Central,SAN LUIS,700,EDIFICIO DE DEPARTAMENTOS,50.00,PLANTA BAJA,2,BAJA,30000,-31.42060180,-64.19624230
recQEz41fcF8NsQGq,"chubut 400 Ciudad de Cordoba, Provincia de Córdoba, Argentina",12/6/2023,Alberdi,Ciudad de Cordoba,Mercado Central,Central,chubut,348,EDIFICIO DE DEPARTAMENTOS,42.55,3,1,ESTANDAR,30450,-31.40458270,-64.20197410
rec1Se706o0viDiAP,"Santa Fe 900 Ciudad de Cordoba, Provincia de Córdoba, Argentina",4/3/2023,Providencia,Ciudad de Cordoba,Mercado Central,Central,Santa Fe,886,EDIFICIO DE DEPARTAMENTOS,41.66,6,MONOAMBIENTE,ESTANDAR,31000,-31.40241560,-64.19799030
recG7cedrx6Tkw7TY,"Potosí 1100 Ciudad de Cordoba, Provincia de Córdoba, Argentina",2/10/2022,General Pueyrredon,Ciudad de Cordoba,Pueyrredon,Este,Potosí,1068,EDIFICIO DE DEPARTAMENTOS,42.66,1,1,ESTANDAR,31500,-31.40205880,-64.17313180
recKa4Vjq8PNIYdr0,"Potosí 1100 Ciudad de Cordoba, Provincia de Córdoba, Argentina",12/12/2021,General Pueyrredon,Ciudad de Cordoba,Pueyrredon,Este,Potosí,1068,EDIFICIO DE DEPARTAMENTOS,45.80,PLANTA BAJA,1,ESTANDAR,31500,-31.40205880,-64.17313180
reczQB7vfAieoks3L,"Potosí 1100 Ciudad de Cordoba, Provincia de Córdoba, Argentina",6/9/2021,General Pueyrredon,Ciudad de Cordoba,Pueyrredon,Este,Potosí,1068,EDIFICIO DE DEPARTAMENTOS,45.80,PLANTA BAJA,1,ESTANDAR,31500,-31.40205880,-64.17313180
rec6VuUrQoaVMi4xh,"Faustino Allende  1100 Ciudad de Cordoba, Provincia de Córdoba, Argentina",1/4/2020,Alta Cordoba,Ciudad de Cordoba,Centroamérica,Central,Faustino Allende ,1092,EDIFICIO DE DEPARTAMENTOS,35.66,3,1,ESTANDAR,32000,-31.39866940,-64.19256720
reclLtVwwSLALslyM,"Roma 1200 Ciudad de Cordoba, Provincia de Córdoba, Argentina",7/10/2022,General Pueyrredon,Ciudad de Cordoba,Pueyrredon,Este,Roma,1168,EDIFICIO DE DEPARTAMENTOS,40.60,1,1,ESTANDAR,32000,-31.40266120,-64.16741940
rec3iOAkKQd2HuFnc,"Gral Deheza 1000 Ciudad de Cordoba, Provincia de Córdoba, Argentina",1/4/2019,General Pueyrredon,Ciudad de Cordoba,Pueyrredon,Este,Gral Deheza,973,EDIFICIO DE DEPARTAMENTOS,41.99,3,1,ESTANDAR,32000,-31.40444890,-64.16546920
recIrlEo0vx0SMCBy,"Av Don Bosco 5200 Ciudad de Cordoba, Provincia de Córdoba, Argentina",1/4/2019,Teodoro Felds,Ciudad de Cordoba,Colón,Oeste,Av Don Bosco,5194,COMPLEJO CERRADO,55.00,3,2,BAJA,32000,-31.40119280,-64.25260990
reckzTfXSSZcnO43g,"Arturo Oragaz 300 Ciudad de Cordoba, Provincia de Córdoba, Argentina",6/9/2021,Alberdi,Ciudad de Cordoba,Mercado Central,Central,Arturo Oragaz,240,EDIFICIO DE DEPARTAMENTOS,64.98,2,3,ESTANDAR,32000,-31.40531810,-64.20764460
recTYRauhfIBpUOzW,"Martin Garcia  300 Ciudad de Cordoba, Provincia de Córdoba, Argentina",1/4/2018,San Martin,Ciudad de Cordoba,Monseñor Pablo Cabrera,Norte 2,Martin Garcia ,286,FORMA PARTE DE UN PH ,152.50,1,2,ESTANDAR,32000,-31.40184850,-64.19438520
recqX3bAgg9aoUFMW,"Sarachaga  400 Ciudad de Cordoba, Provincia de Córdoba, Argentina",1/4/2018,Alta Cordoba,Ciudad de Cordoba,Centroamérica,Central,Sarachaga ,369,EDIFICIO DE DEPARTAMENTOS,41.65,1,1,ESTANDAR,32200,-31.39227420,-64.17969780
recJWADAhHKO9Jawi,"Fructuoso Rivera 500 Ciudad de Cordoba, Provincia de Córdoba, Argentina",6/9/2021,Guemes,Ciudad de Cordoba,Mercado Central,Central,Fructuoso Rivera,412,EDIFICIO DE DEPARTAMENTOS,41.42,2,1,ESTANDAR,32500,-31.42451530,-64.19525320
recCaafDbddpeXVoG,"Duarte Quiros 700 Ciudad de Cordoba, Provincia de Córdoba, Argentina",1/4/2019,Alberdi,Ciudad de Cordoba,Mercado Central,Central,Duarte Quiros,675,EDIFICIO DE DEPARTAMENTOS,33.00,8,1,ESTANDAR,33000,-31.41662890,-64.19488310
recYJSASXEdKXtXhy,"Pje Bordones 100 Ciudad de Cordoba, Provincia de Córdoba, Argentina",9/9/2022,Alberdi,Ciudad de Cordoba,Mercado Central,Central,Pje Bordones,32,EDIFICIO DE DEPARTAMENTOS,40.66,2,1,ESTANDAR,33000,-31.40874870,-64.20453710
recVd4XVo4XV6dsbF,"Misiones 300 Ciudad de Cordoba, Provincia de Córdoba, Argentina",3/6/2022,Alberdi,Ciudad de Cordoba,Mercado Central,Central,Misiones,245,EDIFICIO DE DEPARTAMENTOS,41.32,6,1,ESTANDAR,33000,-31.41358660,-64.20185630
recBACJsxtCRzGG0X,"Güemes 700 Ciudad de Cordoba, Provincia de Córdoba, Argentina",1/4/2018,General Paz,Ciudad de Cordoba,Pueyrredon,Este,Güemes,635,EDIFICIO DE DEPARTAMENTOS,42.66,2,1,ESTANDAR,33500,-31.41275970,-64.16081850
reckO6mcquco1ckYP,"Ducasse 1100 Ciudad de Cordoba, Provincia de Córdoba, Argentina",1/4/2020,Ducasse,Ciudad de Cordoba,Mercado Central,Central,Ducasse,1033,EDIFICIO DE DEPARTAMENTOS,43.99,1,1,ESTANDAR,33500,-31.40367810,-64.19484900
recnccJx52zCuQiZp,"Ducasse 1100 Ciudad de Cordoba, Provincia de Córdoba, Argentina",6/9/2021,Ducasse,Ciudad de Cordoba,Mercado Central,Central,Ducasse,1033,EDIFICIO DE DEPARTAMENTOS,43.99,3,1,ESTANDAR,33500,-31.40367810,-64.19484900
recO0L0NvUEoTWZih,"Viamonte 1200 Ciudad de Cordoba, Provincia de Córdoba, Argentina",3/10/2023,General Pueyrredon,Ciudad de Cordoba,Pueyrredon,Este,Viamonte,1200,EDIFICIO DE DEPARTAMENTOS,47.64,2,1,ESTANDAR,33500,-31.40299350,-64.16862460
recfZvckDRaUfUetW,"Mariano Castex 200 Ciudad de Cordoba, Provincia de Córdoba, Argentina",1/4/2019,Alto Alberdi,Ciudad de Cordoba,Colón,Oeste,Mariano Castex,176,EDIFICIO DE DEPARTAMENTOS,40.00,5,1,ESTANDAR,34000,-31.40376130,-64.21595260
rec0XYrdw0OaZYTih,"Duarte Quiros 2600 Ciudad de Cordoba, Provincia de Córdoba, Argentina",8/1/2022,Alto Alberdi,Ciudad de Cordoba,Colón,Oeste,Duarte Quiros,2584,EDIFICIO DE DEPARTAMENTOS,40.00,2,1,ESTANDAR,34000,-31.40899580,-64.21778650
recUcOZh4R0iuW2JK,"Tomas Bordones 100 Ciudad de Cordoba, Provincia de Córdoba, Argentina",12/6/2023,Alberdi,Ciudad de Cordoba,Mercado Central,Central,Tomas Bordones,32,EDIFICIO DE DEPARTAMENTOS,40.66,2,1,ESTANDAR,34000,-31.40874870,-64.20453710
recgwtBPPdqPnUNz8,"TUCUMAN 400 Ciudad de Cordoba, Provincia de Córdoba, Argentina",1/4/2019,Centro Norte (Av. Colon hacia el Río),Ciudad de Cordoba,Mercado Central,Central,TUCUMAN,400,EDIFICIO DE DEPARTAMENTOS,37.90,6,1,ESTANDAR,34500,-31.41023150,-64.18608300
recalGDjeMpeVcvn0,"Roma 1100 Ciudad de Cordoba, Provincia de Córdoba, Argentina",1/4/2020,General Paz,Ciudad de Cordoba,Pueyrredon,Este,Roma,1039,EDIFICIO DE DEPARTAMENTOS,39.65,1,1,ESTANDAR,34500,-31.40369870,-64.16686220
recpPog7BagxeBUv7,"Tomas Bordones 100 Ciudad de Cordoba, Provincia de Córdoba, Argentina",12/6/2023,Alberdi,Ciudad de Cordoba,Mercado Central,Central,Tomas Bordones,32,EDIFICIO DE DEPARTAMENTOS,40.66,1,1,ESTANDAR,34500,-31.40874870,-64.20453710
recjgQBHnI5oSSSs8,"ARMENIA  1800 Ciudad de Cordoba, Provincia de Córdoba, Argentina",12/11/2023,General Pueyrredon,Ciudad de Cordoba,Pueyrredon,Este,ARMENIA ,1755,EDIFICIO DE DEPARTAMENTOS,41.32,1,1,ESTANDAR,34500,-31.40510360,-64.16283680
recd3MOiQppv9HQ3X,"Duarte Quiros 2600 Ciudad de Cordoba, Provincia de Córdoba, Argentina",1/4/2018,Alto Alberdi,Ciudad de Cordoba,Colón,Oeste,Duarte Quiros,2584,EDIFICIO DE DEPARTAMENTOS,41.32,5,1,ESTANDAR,34500,-31.40899580,-64.21778650
rec9GqT9e69GSojOT,"CASEROS  3200 Ciudad de Cordoba, Provincia de Córdoba, Argentina",8/4/2023,Alto Alberdi,Ciudad de Cordoba,Colón,Oeste,CASEROS ,3183,EDIFICIO DE DEPARTAMENTOS,42.66,2,1,ESTANDAR,34500,-31.40544880,-64.22463360
recF2ZjXfZtHdz1gh,"Buenos Aires 1100 Ciudad de Cordoba, Provincia de Córdoba, Argentina",7/2/2024,Nueva Cordoba,Ciudad de Cordoba,Mercado Central,Central,Buenos Aires,1079,EDIFICIO DE DEPARTAMENTOS,27.00,10,MONOAMBIENTE,ESTANDAR,35000,-31.42931200,-64.18824370
reczcsMB4BZadmAmT,"Santa Rosa 1500 Ciudad de Cordoba, Provincia de Córdoba, Argentina",7/1/2022,Alberdi,Ciudad de Cordoba,Mercado Central,Central,Santa Rosa,1489,EDIFICIO DE DEPARTAMENTOS,40.00,1,1,ESTANDAR,35000,-31.40692220,-64.20172210
rec7k3aIjjjLOsA7l,"Juan de Garay 1600 Ciudad de Cordoba, Provincia de Córdoba, Argentina",6/9/2021,General Pueyrredon,Ciudad de Cordoba,Pueyrredon,Este,Juan de Garay,1569,EDIFICIO DE DEPARTAMENTOS,41.32,2,1,ESTANDAR,35000,-31.40458770,-64.16549650
recETBH0S57QOcH1p,"Gral Deheza 1000 Ciudad de Cordoba, Provincia de Córdoba, Argentina",1/4/2018,General Pueyrredon,Ciudad de Cordoba,Pueyrredon,Este,Gral Deheza,973,EDIFICIO DE DEPARTAMENTOS,45.40,PLANTA BAJA,1,ESTANDAR,35000,-31.40444890,-64.16546920
rec61V0qZPAJplOwf,"9 de julio  3100 Ciudad de Cordoba, Provincia de Córdoba, Argentina",1/4/2018,Alto Alberdi,Ciudad de Cordoba,Colón,Oeste,9 de julio ,3068,EDIFICIO DE DEPARTAMENTOS,46.65,4,1,ESTANDAR,35000,-31.40296950,-64.22198170
recVBGyaOZ3w6vprL,"POTOSI 1000 Ciudad de Cordoba, Provincia de Córdoba, Argentina",1/4/2018,General Pueyrredon,Ciudad de Cordoba,Pueyrredon,Este,POTOSI,1000,EDIFICIO DE DEPARTAMENTOS,47.32,3,1,ESTANDAR,35000,-31.40239710,-64.17425330
reckPf8Z0rsdxFBtc,"Potosí 1100 Ciudad de Cordoba, Provincia de Córdoba, Argentina",9/8/2022,General Pueyrredon,Ciudad de Cordoba,Pueyrredon,Este,Potosí,1068,EDIFICIO DE DEPARTAMENTOS,51.00,PLANTA BAJA,1,ESTANDAR,35000,-31.40205880,-64.17313180
recDfPKARozROKoCv,"Juan de Garay 1600 Ciudad de Cordoba, Provincia de Córdoba, Argentina",6/9/2021,General Pueyrredon,Ciudad de Cordoba,Pueyrredon,Este,Juan de Garay,1569,EDIFICIO DE DEPARTAMENTOS,51.31,3,1,ESTANDAR,35000,-31.40458770,-64.16549650
recaKDqx2bxQcCj0b,"9 de julio  200 La Falda, Provincia de Córdoba, Argentina",12/4/2023,Centro,La Falda,,,9 de julio ,126,FORMA PARTE DE UN PH ,76.60,1,2,ESTANDAR,35000,-31.09065010,-64.48443690
recv9ISSv2obOVgZM,"Obispo Trejo 1200 Ciudad de Cordoba, Provincia de Córdoba, Argentina",1/4/2018,Nueva Cordoba,Ciudad de Cordoba,Mercado Central,Central,Obispo Trejo,1143,EDIFICIO DE DEPARTAMENTOS,45.60,PLANTA BAJA,1,ESTANDAR,35500,-31.42943440,-64.19126970
recyhrDMdhao2Ot3m,"Güemes 900 Ciudad de Cordoba, Provincia de Córdoba, Argentina",6/9/2021,General Pueyrredon,Ciudad de Cordoba,Pueyrredon,Este,Güemes,832,EDIFICIO DE DEPARTAMENTOS,46.00,3,1,ESTANDAR,35500,-31.40159090,-64.16067040
rectwsUa6Bi7bcige,"sucre 100 Ciudad de Cordoba, Provincia de Córdoba, Argentina",9/6/2023,Centro Sud (Av Colon hacia Nva Cba),Ciudad de Cordoba,Mercado Central,Central,sucre,62,EDIFICIO DE DEPARTAMENTOS,33.66,5,1,ESTANDAR,36000,-31.41321950,-64.18883640
rec35h7aj4DoikvNh,"9 DE JULIO ESQ. CHACO 1400 Ciudad de Cordoba, Provincia de Córdoba, Argentina",1/4/2019,Alberdi,Ciudad de Cordoba,Mercado Central,Central,9 DE JULIO ESQ. CHACO,1390,EDIFICIO DE DEPARTAMENTOS,37.00,5,1,ESTANDAR,36000,-31.41546440,-64.20701740
recO18DqhMkl5qizW,"Roma 1200 Ciudad de Cordoba, Provincia de Córdoba, Argentina",6/9/2021,General Pueyrredon,Ciudad de Cordoba,Pueyrredon,Este,Roma,1168,EDIFICIO DE DEPARTAMENTOS,39.98,2,1,ESTANDAR,36000,-31.40266120,-64.16741940
recj7AeeMyICB3J5g,"Maipu  100 Ciudad de Cordoba, Provincia de Córdoba, Argentina",1/4/2019,Centro Sud (Av Colon hacia Nva Cba),Ciudad de Cordoba,Mercado Central,Central,Maipu ,18,EDIFICIO DE DEPARTAMENTOS,40.00,2,1,ESTANDAR,36000,-31.39814530,-64.23259760
reckwcSdzKYsAkIzO,"Av Pueyrredon 800 Ciudad de Cordoba, Provincia de Córdoba, Argentina",6/9/2021,Guemes,Ciudad de Cordoba,Mercado Central,Central,Av Pueyrredon,724,COMPLEJO CERRADO,48.00,2,1,ESTANDAR,36000,-31.42399220,-64.19905340
recRnNNGyG06QdLxz,"Independencia 300 Ciudad de Cordoba, Provincia de Córdoba, Argentina",1/4/2019,Centro Sud (Av Colon hacia Nva Cba),Ciudad de Cordoba,Mercado Central,Central,Independencia,283,EDIFICIO DE DEPARTAMENTOS,40.66,2,1,ESTANDAR,36500,-31.41207200,-64.18844570
receCq5oqgCFj7u41,"Juan de Garay 1600 Ciudad de Cordoba, Provincia de Córdoba, Argentina",9/8/2022,General Pueyrredon,Ciudad de Cordoba,Pueyrredon,Este,Juan de Garay,1569,EDIFICIO DE DEPARTAMENTOS,41.32,1,1,ESTANDAR,36500,-31.40458770,-64.16549650
recqDhdXmada8UO1J,"Güemes 900 Ciudad de Cordoba, Provincia de Córdoba, Argentina",9/8/2022,General Pueyrredon,Ciudad de Cordoba,Pueyrredon,Este,Güemes,853,EDIFICIO DE DEPARTAMENTOS,47.00,3,1,ESTANDAR,36500,-31.40159090,-64.16067040
recrML5cvxjSygrni,"Viamonte 1300 Ciudad de Cordoba, Provincia de Córdoba, Argentina",8/1/2023,General Pueyrredon,Ciudad de Cordoba,Pueyrredon,Este,Viamonte,1246,EDIFICIO DE DEPARTAMENTOS,52.00,2,1,ESTANDAR,36600,-31.40198350,-64.16899670
recIlYg9yiY3eRoke,"jujuy 1500 Ciudad de Cordoba, Provincia de Córdoba, Argentina",1/4/2018,Alta Cordoba,Ciudad de Cordoba,Centroamérica,Central,jujuy,1487,EDIFICIO DE DEPARTAMENTOS,40.66,5,1,ESTANDAR,36750,-31.39898360,-64.18407850
recozGqlNJtbBI7kU,"Potosí 1100 Ciudad de Cordoba, Provincia de Córdoba, Argentina",6/9/2021,General Pueyrredon,Ciudad de Cordoba,Pueyrredon,Este,Potosí,1068,EDIFICIO DE DEPARTAMENTOS,50.00,3,1,ESTANDAR,36800,-31.40205880,-64.17313180
recGU40LkwYmTD8Kp,"ARMENIA 1800 Ciudad de Cordoba, Provincia de Córdoba, Argentina",1/4/2019,General Pueyrredon,Ciudad de Cordoba,Pueyrredon,Este,ARMENIA,1755,EDIFICIO DE DEPARTAMENTOS,53.20,2,1,PREMIUM,36900,-31.40510360,-64.16283680
recK0vk1Yf3ymnIoj,"Pbro. J. T. LUQUE 200 Las Varillas, Provincia de Córdoba, Argentina",1/4/2020,Centro,Las Varillas,,,Pbro. J. T. LUQUE,185,EDIFICIO DE DEPARTAMENTOS,35.66,2,1,ESTANDAR,37000,-31.87016490,-62.71925210
recZ5fEEKYQZodj6V,"Juan del Campillo 1000 Ciudad de Cordoba, Provincia de Córdoba, Argentina",4/3/2023,Cofico,Ciudad de Cordoba,Centroamérica,Central,Juan del Campillo,987,EDIFICIO DE DEPARTAMENTOS,45.83,5,1,ESTANDAR,37000,-31.39763430,-64.19108470
rec1hPNNUodnOUVpJ,"HAEDO 200 Ciudad de Cordoba, Provincia de Córdoba, Argentina",12/7/2023,Alto Alberdi,Ciudad de Cordoba,Colón,Oeste,HAEDO,151,COMPLEJO CERRADO,45.99,2,1,ESTANDAR,37000,-31.40956820,-64.21243240
recyDu8HlOvYTws00,"Roma  600 Ciudad de Cordoba, Provincia de Córdoba, Argentina",1/4/2020,General Paz,Ciudad de Cordoba,Pueyrredon,Este,Roma ,555,EDIFICIO DE DEPARTAMENTOS,47.00,4,1,ESTANDAR,37000,-31.40909810,-64.16523360
recL2kObhdlDMqmq3,"Simon Bolivar 100 Ciudad de Cordoba, Provincia de Córdoba, Argentina",1/4/2018,Centro Sud (Av Colon hacia Nva Cba),Ciudad de Cordoba,Mercado Central,Central,Simon Bolivar,100,EDIFICIO DE DEPARTAMENTOS,40.00,9,1,ESTANDAR,37500,-31.41406880,-64.19088420
recfs1yfLtNsysHpm,"Chacabuco  100 Ciudad de Cordoba, Provincia de Córdoba, Argentina",1/4/2019,Centro Sud (Av Colon hacia Nva Cba),Ciudad de Cordoba,Mercado Central,Central,Chacabuco ,41,EDIFICIO DE DEPARTAMENTOS,41.00,5,MONOAMBIENTE,ESTANDAR,37500,-31.41207200,-64.18844570
recEJkSRHFhnvXxm9,"Lima 2000 Ciudad de Cordoba, Provincia de Córdoba, Argentina",9/9/2022,General Paz,Ciudad de Cordoba,Pueyrredon,Este,Lima,1986,EDIFICIO DE DEPARTAMENTOS,39.32,2,1,ESTANDAR,38000,-31.41027170,-64.15720810
reca9WZbLk86IJW82,"Sarmiento 1400 Ciudad de Cordoba, Provincia de Córdoba, Argentina",1/4/2018,General Paz,Ciudad de Cordoba,Pueyrredon,Este,Sarmiento,1322,EDIFICIO DE DEPARTAMENTOS,40.00,1,1,ESTANDAR,38000,-31.41039390,-64.16602510
rec9nieh6icl84YZl,"Bv Mitre 600 Ciudad de Cordoba, Provincia de Córdoba, Argentina",7/11/2022,Centro Norte (Av. Colon hacia el Río),Ciudad de Cordoba,Mercado Central,Central,Bv Mitre,517,EDIFICIO DE DEPARTAMENTOS,40.66,11,1,ESTANDAR,38000,-31.41207200,-64.18844570
rec0HsVnT5w6e3sCv,"Roma 1100 Ciudad de Cordoba, Provincia de Córdoba, Argentina",6/9/2021,General Pueyrredon,Ciudad de Cordoba,Pueyrredon,Este,Roma,1039,EDIFICIO DE DEPARTAMENTOS,40.98,2,1,ESTANDAR,38000,-31.40369870,-64.16686220
rec8R2sDkMm2E8Ymf,"Haedo  200 Ciudad de Cordoba, Provincia de Córdoba, Argentina",1/4/2019,Alto Alberdi,Ciudad de Cordoba,Colón,Oeste,Haedo ,151,COMPLEJO CERRADO,44.00,PLANTA BAJA,1,ESTANDAR,38000,-31.40956820,-64.21243240
recl6QNAmkDMQjCa7,"DOCTA Housing del Boulevard Ciudad de Cordoba, Provincia de Córdoba, Argentina",1/4/2018,DOCTA Housing del Boulevard,Ciudad de Cordoba,Villa Libertador,Sur - Oeste,1,0,EDIFICIO DE DEPARTAMENTOS,47.65,2,1,ESTANDAR,38000,-31.46129230,-64.30596280
recJrAIoga29qB7fC,"Avellaneda 500 Ciudad de Cordoba, Provincia de Córdoba, Argentina",6/9/2021,Alberdi,Ciudad de Cordoba,Mercado Central,Central,Avellaneda,475,EDIFICIO DE DEPARTAMENTOS,55.99,9,1,ESTANDAR,38000,-31.40639460,-64.19398150
recZfrD5WCMLKDF6y,"9 DE JULIO 700 Ciudad de Cordoba, Provincia de Córdoba, Argentina",1/4/2018,Alberdi,Ciudad de Cordoba,Mercado Central,Central,9 DE JULIO,700,EDIFICIO DE DEPARTAMENTOS,40.66,6,1,ESTANDAR,38500,-31.41199850,-64.19299470
recUE9HCaqQXJbaXA,"chubut 300 Ciudad de Cordoba, Provincia de Córdoba, Argentina",1/4/2018,Alberdi,Ciudad de Cordoba,Mercado Central,Central,chubut,300,EDIFICIO DE DEPARTAMENTOS,40.00,2,1,ESTANDAR,38810,-31.40671890,-64.20286900
recTA1NFYLyyL9z8Y,"BUENOS AIRES  1100 Ciudad de Cordoba, Provincia de Córdoba, Argentina",1/4/2019,Nueva Cordoba,Ciudad de Cordoba,Mercado Central,Central,BUENOS AIRES ,1079,EDIFICIO DE DEPARTAMENTOS,33.00,4,1,ESTANDAR,39000,-31.42931200,-64.18824370
recQ0PY5qlbZx7Ywd,"jujuy 1500 Ciudad de Cordoba, Provincia de Córdoba, Argentina",1/4/2018,Cofico,Ciudad de Cordoba,Centroamérica,Central,jujuy,1487,EDIFICIO DE DEPARTAMENTOS,36.65,6,1,ESTANDAR,39000,-31.39898360,-64.18407850
recMy7N3s9Oe5GVEo,"Santiago Temple 100 Ciudad de Cordoba, Provincia de Córdoba, Argentina",1/4/2018,Nueva Cordoba,Ciudad de Cordoba,Mercado Central,Central,Santiago Temple,21,EDIFICIO DE DEPARTAMENTOS,39.65,5,1,ESTANDAR,39000,-31.43147860,-64.19203740
recpJmI6RlwL8AkTt,"Roma 1200 Ciudad de Cordoba, Provincia de Córdoba, Argentina",6/9/2021,General Pueyrredon,Ciudad de Cordoba,Pueyrredon,Este,Roma,1168,EDIFICIO DE DEPARTAMENTOS,41.60,1,1,ESTANDAR,39000,-31.40266120,-64.16741940
recsAZbQLuvcCvARi,"Avellaneda 500 Ciudad de Cordoba, Provincia de Córdoba, Argentina",3/6/2022,Alberdi,Ciudad de Cordoba,Mercado Central,Central,Avellaneda,445,EDIFICIO DE DEPARTAMENTOS,45.99,11,1,ESTANDAR,39000,-31.40639460,-64.19398150
recBQe7sdJwOWCZKP,"Crisol 100 Ciudad de Cordoba, Provincia de Córdoba, Argentina",1/4/2020,Nueva Cordoba,Ciudad de Cordoba,Mercado Central,Central,Crisol,11,EDIFICIO DE DEPARTAMENTOS,36.66,4,MONOAMBIENTE,ESTANDAR,40000,-31.42896790,-64.18830170
recDVlzDHXQ5F1QDh,"Av Colon 5000 Ciudad de Cordoba, Provincia de Córdoba, Argentina",1/4/2018,Teodoro Felds,Ciudad de Cordoba,Colón,Oeste,Av Colon,4993,COMPLEJO CERRADO,40.99,4,1,ESTANDAR,40000,-31.39567790,-64.24593590
recrEptEAerXKmCmw,"9 de Julio 500 La Falda, Provincia de Córdoba, Argentina",1/4/2018,Centro,La Falda,,,9 de Julio,407,EDIFICIO DE DEPARTAMENTOS,41.51,PLANTA BAJA,1,ESTANDAR,40000,-31.41484910,-64.17921790
recgf1OQxEHgz9jlo,"Mariano Fragueiro 1600 Ciudad de Cordoba, Provincia de Córdoba, Argentina",6/9/2021,Alta Cordoba,Ciudad de Cordoba,Centroamérica,Central,Mariano Fragueiro,1600,EDIFICIO DE DEPARTAMENTOS,41.66,6,1,ESTANDAR,40000,-31.39684140,-64.18627230
recZx7fV5lDXwULBh,"Bv San Juan 900 Ciudad de Cordoba, Provincia de Córdoba, Argentina",1/4/2019,Observatorio,Ciudad de Cordoba,Mercado Central,Central,Bv San Juan,879,EDIFICIO DE DEPARTAMENTOS,42.33,12,1,ESTANDAR,40000,-31.41752390,-64.19779780
rechRUVCutFWjtugr,"Bv San Juan 900 Ciudad de Cordoba, Provincia de Córdoba, Argentina",6/9/2021,Observatorio,Ciudad de Cordoba,Mercado Central,Central,Bv San Juan,879,EDIFICIO DE DEPARTAMENTOS,42.99,12,1,ESTANDAR,40000,-31.41752390,-64.19779780
recmEBg2LQg4BQmfh,"Gral Deheza 700 Ciudad de Cordoba, Provincia de Córdoba, Argentina",9/9/2022,General Paz,Ciudad de Cordoba,Pueyrredon,Este,Gral Deheza,669,EDIFICIO DE DEPARTAMENTOS,43.99,3,1,ESTANDAR,40000,-31.40738860,-64.16423320
rec0rkYQ9I3Ztntvw,"CHUBUT 400 Ciudad de Cordoba, Provincia de Córdoba, Argentina",5/8/2024,Alberdi,Ciudad de Cordoba,Mercado Central,Central,CHUBUT,348,EDIFICIO DE DEPARTAMENTOS,44.53,2,1,ESTANDAR,40000,-31.40458270,-64.20197410
reckfncanuGCfF4EB,"Av Velez Sarsfield 1900 Ciudad de Cordoba, Provincia de Córdoba, Argentina",2/10/2022,Guemes,Ciudad de Cordoba,Mercado Central,Central,Av Velez Sarsfield,1802,EDIFICIO DE DEPARTAMENTOS,44.99,1,1,ESTANDAR,40000,-31.43636070,-64.19545710
recRkPSkXfTMpukOh,"Potosí 1100 Ciudad de Cordoba, Provincia de Córdoba, Argentina",6/9/2021,General Pueyrredon,Ciudad de Cordoba,Pueyrredon,Este,Potosí,1068,EDIFICIO DE DEPARTAMENTOS,49.60,3,1,ESTANDAR,40000,-31.40205880,-64.17313180
recqf3RDEwrrIFUQg,"Bv Illia 600 Ciudad de Cordoba, Provincia de Córdoba, Argentina",1/4/2018,Nueva Cordoba,Ciudad de Cordoba,Mercado Central,Central,Bv Illia,523,EDIFICIO DE DEPARTAMENTOS,51.86,4,1,ESTANDAR,40000,-31.42320100,-64.17785620
rec4BdGgmz52j5VQl,"Antonio del Viso 900 Ciudad de Cordoba, Provincia de Córdoba, Argentina",1/4/2019,Alta Cordoba,Ciudad de Cordoba,Centroamérica,Central,Antonio del Viso,853,EDIFICIO DE DEPARTAMENTOS,35.00,1,1,ESTANDAR,40300,-31.39256310,-64.18752410
recw3OZPmxov0xEDg,"Viamonte 1300 Ciudad de Cordoba, Provincia de Córdoba, Argentina",1/4/2018,General Pueyrredon,Ciudad de Cordoba,Pueyrredon,Este,Viamonte,1246,EDIFICIO DE DEPARTAMENTOS,57.00,PLANTA BAJA,1,ESTANDAR,40400,-31.40198350,-64.16899670
recPU8R2H9PcI2oHr,"Peredo 200 Ciudad de Cordoba, Provincia de Córdoba, Argentina",1/4/2019,Nueva Cordoba,Ciudad de Cordoba,Mercado Central,Central,Peredo,160,EDIFICIO DE DEPARTAMENTOS,36.00,5,1,ESTANDAR,41000,-31.42858550,-64.18485240
recB1VuvkMg7aV61C,"LA PLATA 100 La Falda, Provincia de Córdoba, Argentina",9/3/2023,Centro,La Falda,,,LA PLATA,100,EDIFICIO DE DEPARTAMENTOS,39.40,PLANTA BAJA,MONOAMBIENTE,PREMIUM,41000,-31.09179470,-64.48154090
recXfHyiSiYtTpVUC,"Av Pueyrredon 800 Ciudad de Cordoba, Provincia de Córdoba, Argentina",1/4/2018,Guemes,Ciudad de Cordoba,Mercado Central,Central,Av Pueyrredon,724,COMPLEJO CERRADO,40.66,16,1,ESTANDAR,41000,-31.42399220,-64.19905340
recxfu4jJsJUaR2tv,"Av Pueyrredon 200 Ciudad de Cordoba, Provincia de Córdoba, Argentina",6/9/2021,Nueva Cordoba,Ciudad de Cordoba,Mercado Central,Central,Av Pueyrredon,151,EDIFICIO DE DEPARTAMENTOS,45.00,4,1,ESTANDAR,41000,-31.42643930,-64.19131790
recjT6gvctWaeL54L,"obispo salguero 500 Ciudad de Cordoba, Provincia de Córdoba, Argentina",1/4/2018,Nueva Cordoba,Ciudad de Cordoba,Mercado Central,Central,obispo salguero,430,EDIFICIO DE DEPARTAMENTOS,46.98,3,1,ESTANDAR,41000,-31.42370700,-64.18148400
recHxJKmDh29FDmqx,"Av Pueyrredon 800 Ciudad de Cordoba, Provincia de Córdoba, Argentina",7/10/2022,Guemes,Ciudad de Cordoba,Mercado Central,Central,Av Pueyrredon,724,COMPLEJO CERRADO,48.00,12,1,ESTANDAR,41000,-31.42399220,-64.19905340
recIjuQMHX4CXxqI9,"Bedoya 1000 Ciudad de Cordoba, Provincia de Córdoba, Argentina",1/4/2018,Cofico,Ciudad de Cordoba,Centroamérica,Central,Bedoya,990,EDIFICIO DE DEPARTAMENTOS,54.52,3,1,ESTANDAR,41000,-31.39668310,-64.19041920
recsB1RMSwdwt66l9,"Viamonte 400 Ciudad de Cordoba, Provincia de Córdoba, Argentina",8/1/2022,General Paz,Ciudad de Cordoba,Pueyrredon,Este,Viamonte,400,EDIFICIO DE DEPARTAMENTOS,39.66,2,1,ESTANDAR,41200,-31.41124060,-64.16528320
recB7y4xTWdG4aDCH,"VENEZUELA 100 Ciudad de Cordoba, Provincia de Córdoba, Argentina",11/3/2023,Nueva Cordoba,Ciudad de Cordoba,Mercado Central,Central,VENEZUELA,15,EDIFICIO DE DEPARTAMENTOS,34.00,8,1,ESTANDAR,41500,-31.43330510,-64.18968080
recdCIas6ORnFaVGn,"Bv Mitre 600 Ciudad de Cordoba, Provincia de Córdoba, Argentina",11/3/2022,Centro Norte (Av. Colon hacia el Río),Ciudad de Cordoba,Mercado Central,Central,Bv Mitre,517,EDIFICIO DE DEPARTAMENTOS,40.66,16,1,ESTANDAR,41500,-31.41207200,-64.18844570
rec1JJzubsYTCPaue,"Bv Mitre 600 Ciudad de Cordoba, Provincia de Córdoba, Argentina",1/4/2018,Centro Norte (Av. Colon hacia el Río),Ciudad de Cordoba,Mercado Central,Central,Bv Mitre,517,EDIFICIO DE DEPARTAMENTOS,43.32,15,1,ESTANDAR,41500,-31.41207200,-64.18844570
recVY38qZYBwbqqf4,"Buenos Aires 400 Ciudad de Cordoba, Provincia de Córdoba, Argentina",1/4/2018,Centro Sud (Av Colon hacia Nva Cba),Ciudad de Cordoba,Mercado Central,Central,Buenos Aires,330,EDIFICIO DE DEPARTAMENTOS,51.65,4,1,ESTANDAR,41500,-31.42100900,-64.18476980
recUnWttCIyf5LsKo,"Bv. San Juan  100 Ciudad de Cordoba, Provincia de Córdoba, Argentina",1/4/2019,Nueva Cordoba,Ciudad de Cordoba,Mercado Central,Central,Bv. San Juan ,16,EDIFICIO DE DEPARTAMENTOS,38.00,3,1,ESTANDAR,42000,-31.42034360,-64.18742530
rec4iHWUmhZU6kw50,"Bv. San Juan 100 Ciudad de Cordoba, Provincia de Córdoba, Argentina",1/4/2018,Nueva Cordoba,Ciudad de Cordoba,Mercado Central,Central,Bv. San Juan,19,EDIFICIO DE DEPARTAMENTOS,40.00,5,1,ESTANDAR,42000,-31.42034360,-64.18742530
recUf8gjK48Pa8J0D,"JUJUY 100 Ciudad de Cordoba, Provincia de Córdoba, Argentina",1/4/2018,Centro Sud (Av Colon hacia Nva Cba),Ciudad de Cordoba,Mercado Central,Central,JUJUY,100,EDIFICIO DE DEPARTAMENTOS,42.66,4,1,ESTANDAR,42000,-31.41291950,-64.19039540
rec3NhVveCTqwVfHA,"Gral Deheza 700 Ciudad de Cordoba, Provincia de Córdoba, Argentina",1/4/2020,General Paz,Ciudad de Cordoba,Pueyrredon,Este,Gral Deheza,663,EDIFICIO DE DEPARTAMENTOS,43.66,2,1,ESTANDAR,42000,-31.40738860,-64.16423320
recGMuClFEHiN6UZf,"Independencia 600 Ciudad de Cordoba, Provincia de Córdoba, Argentina",1/4/2020,Nueva Cordoba,Ciudad de Cordoba,Mercado Central,Central,Independencia,541,EDIFICIO DE DEPARTAMENTOS,46.65,9,1,ESTANDAR,42000,-31.42325680,-64.18719950
recBRvyhm795rcdqk,"Av Colon  4900 Ciudad de Cordoba, Provincia de Córdoba, Argentina",1/4/2019,Teodoro Felds,Ciudad de Cordoba,Colón,Oeste,Av Colon ,4875,EDIFICIO DE DEPARTAMENTOS,49.98,1,1,ESTANDAR,42500,-31.39625500,-64.24516100
recFEpz3NZhAJ6CmQ,"Buenos Aires 600 Ciudad de Cordoba, Provincia de Córdoba, Argentina",6/9/2021,Nueva Cordoba,Ciudad de Cordoba,Mercado Central,Central,Buenos Aires,578,EDIFICIO DE DEPARTAMENTOS,24.00,2,MONOAMBIENTE,ESTANDAR,42600,-31.42341920,-64.18586000
recGanyNObB0tfnlY,"Obispo Trejo 800 Ciudad de Cordoba, Provincia de Córdoba, Argentina",6/9/2021,Nueva Cordoba,Ciudad de Cordoba,Mercado Central,Central,Obispo Trejo,734,EDIFICIO DE DEPARTAMENTOS,40.00,6,1,BAJA,43000,-31.42515940,-64.18947050
recFNUi9cYJXLVEcN,"24 DE SEPTIEMBRE 1900 Ciudad de Cordoba, Provincia de Córdoba, Argentina",12/6/2023,General Paz,Ciudad de Cordoba,Pueyrredon,Este,24 DE SEPTIEMBRE,1900,EDIFICIO DE DEPARTAMENTOS,40.25,7,1,ESTANDAR,43000,-31.41184240,-64.15856240
recSUY3guy45fooeQ,"9 de Julio  700 Ciudad de Cordoba, Provincia de Córdoba, Argentina",9/6/2023,Alberdi,Ciudad de Cordoba,Mercado Central,Central,9 de Julio ,635,EDIFICIO DE DEPARTAMENTOS,41.00,5,1,ESTANDAR,43000,-31.41199850,-64.19299470
recvNjtZyIg7fzHBe,"Roma 1100 Ciudad de Cordoba, Provincia de Córdoba, Argentina",9/8/2022,General Pueyrredon,Ciudad de Cordoba,Pueyrredon,Este,Roma,1039,EDIFICIO DE DEPARTAMENTOS,41.98,1,1,ESTANDAR,43000,-31.40369870,-64.16686220
recX82x2Y2puQRq7c,"9 de Julio 900 Ciudad de Cordoba, Provincia de Córdoba, Argentina",5/3/2024,Alberdi,Ciudad de Cordoba,Mercado Central,Central,9 de Julio,822,EDIFICIO DE DEPARTAMENTOS,46.66,2,1,ESTANDAR,43000,-31.41115640,-64.19582070
rec8nPiKyJ62yc6xt,"Gral Deheza 700 Ciudad de Cordoba, Provincia de Córdoba, Argentina",6/9/2021,General Paz,Ciudad de Cordoba,Pueyrredon,Este,Gral Deheza,669,EDIFICIO DE DEPARTAMENTOS,47.00,PLANTA BAJA,1,ESTANDAR,43000,-31.40738860,-64.16423320
recpBqL0gxAxdDCvf,"Av Colon  4900 Ciudad de Cordoba, Provincia de Córdoba, Argentina",1/4/2019,Teodoro Felds,Ciudad de Cordoba,Colón,Oeste,Av Colon ,4875,EDIFICIO DE DEPARTAMENTOS,56.65,2,1,ESTANDAR,43000,-31.39625500,-64.24516100
recXISMijPtZbFcSJ,"Mendoza  700 Ciudad de Cordoba, Provincia de Córdoba, Argentina",1/4/2020,Providencia,Ciudad de Cordoba,Mercado Central,Central,Mendoza ,685,EDIFICIO DE DEPARTAMENTOS,41.98,5,1,ESTANDAR,43300,-31.40370370,-64.19638420
recsyZzAkyHBNc8Yt,"Av Colon 1800 Ciudad de Cordoba, Provincia de Córdoba, Argentina",1/4/2018,Alberdi,Ciudad de Cordoba,Mercado Central,Central,Av Colon,1750,EDIFICIO DE DEPARTAMENTOS,42.99,6,1,ESTANDAR,43500,-31.40654200,-64.20667600
recRXiA9xX1LvhKcf,"Brasil 100 Ciudad de Cordoba, Provincia de Córdoba, Argentina",6/9/2021,Nueva Cordoba,Ciudad de Cordoba,Mercado Central,Central,Brasil,70,EDIFICIO DE DEPARTAMENTOS,47.00,9,1,ESTANDAR,43500,-31.42933910,-64.19125970
recFtAkNsGnMYSdrr,"Suipacha 1400 Ciudad de Cordoba, Provincia de Córdoba, Argentina",1/4/2019,General Pueyrredon,Ciudad de Cordoba,Pueyrredon,Este,Suipacha,1352,EDIFICIO DE DEPARTAMENTOS,56.65,1,2,ESTANDAR,43500,-31.40009560,-64.16979780
recKlFS2IPbtFCHSZ,"Pueyrredon  1000 Ciudad de Cordoba, Provincia de Córdoba, Argentina",1/4/2018,Observatorio,Ciudad de Cordoba,Mercado Central,Central,Pueyrredon ,948,EDIFICIO DE DEPARTAMENTOS,43.65,2,1,ESTANDAR,44000,-31.42332310,-64.20149490
recUttrEZ6Coi4Mws,"pueyrredon 900 Ciudad de Cordoba, Provincia de Córdoba, Argentina",1/4/2018,Observatorio,Ciudad de Cordoba,Mercado Central,Central,pueyrredon,849,EDIFICIO DE DEPARTAMENTOS,80.00,8,2,ESTANDAR,44500,-31.42331630,-64.20148440
rec3VMJsGRZXljNH6,"Catamarca  1500 Ciudad de Cordoba, Provincia de Córdoba, Argentina",1/4/2019,General Paz,Ciudad de Cordoba,Pueyrredon,Este,Catamarca ,1500,EDIFICIO DE DEPARTAMENTOS,37.66,3,1,ESTANDAR,45000,-31.41130260,-64.16438530
recfEQq50XxKqSJLE,"Barcena Juan Antonio 200 Ciudad de Cordoba, Provincia de Córdoba, Argentina",1/4/2018,Teodoro Felds,Ciudad de Cordoba,Colón,Oeste,Barcena Juan Antonio,121,EDIFICIO DE DEPARTAMENTOS,37.99,6,1,ESTANDAR,45000,-31.39729910,-64.24638410
recP86AjJn9UshYHq,"Buenos Aires 1000 Ciudad de Cordoba, Provincia de Córdoba, Argentina",1/4/2019,Nueva Cordoba,Ciudad de Cordoba,Mercado Central,Central,Buenos Aires,1000,EDIFICIO DE DEPARTAMENTOS,39.00,7,1,ESTANDAR,45000,-31.42784590,-64.18752600
recZB1CQjFZWrUNr5,"Bolivar 400 Ciudad de Cordoba, Provincia de Córdoba, Argentina",6/9/2021,Centro Sud (Av Colon hacia Nva Cba),Ciudad de Cordoba,Mercado Central,Central,Bolivar,397,EDIFICIO DE DEPARTAMENTOS,40.00,3,1,ESTANDAR,45000,-36.23912630,-61.12558790
recb1OWbgKPdV0fbR,"ITUZAINGO  600 Ciudad de Cordoba, Provincia de Córdoba, Argentina",12/11/2023,Nueva Cordoba,Ciudad de Cordoba,Mercado Central,Central,ITUZAINGO ,572,EDIFICIO DE DEPARTAMENTOS,41.32,1,1,ESTANDAR,45000,-31.42402790,-64.18464560
recPe0yKD0fy11FpX,"Ituzaingo 700 Ciudad de Cordoba, Provincia de Córdoba, Argentina",1/4/2019,Nueva Cordoba,Ciudad de Cordoba,Mercado Central,Central,Ituzaingo,618,EDIFICIO DE DEPARTAMENTOS,41.65,3,1,ESTANDAR,45000,-31.42521440,-64.18501750
rec496m0INzYjVZdg,"JUAN LARREA 1500 Ciudad de Cordoba, Provincia de Córdoba, Argentina",11/2/2023,Juniors,Ciudad de Cordoba,Pueyrredon,Este,JUAN LARREA,1500,EDIFICIO DE DEPARTAMENTOS,42.66,2,1,ESTANDAR,45000,-31.41592760,-64.16303290
recdJ2SGS4Pt8FcOg,"Av. Santa Fe 700 Ciudad de Cordoba, Provincia de Córdoba, Argentina",12/7/2023,Providencia,Ciudad de Cordoba,Mercado Central,Central,Av. Santa Fe,700,EDIFICIO DE DEPARTAMENTOS,43.99,2,1,ESTANDAR,45000,-31.40338850,-64.19851510
recbujTYDeQg2tH2W,"General deheza  200 Ciudad de Cordoba, Provincia de Córdoba, Argentina",1/4/2020,General Paz,Ciudad de Cordoba,Pueyrredon,Este,General deheza ,170,EDIFICIO DE DEPARTAMENTOS,45.00,2,1,ESTANDAR,45000,-31.41272520,-64.16237210
recuR96PyRko44n4h,"Duarte Quiros 400 Ciudad de Cordoba, Provincia de Córdoba, Argentina",7/1/2022,Centro Sud (Av Colon hacia Nva Cba),Ciudad de Cordoba,Mercado Central,Central,Duarte Quiros,310,EDIFICIO DE DEPARTAMENTOS,45.00,1,2,ESTANDAR,45000,-31.41798940,-64.19086490
recGIyvn1deBjibnu,"Lima 0 Ciudad de Cordoba, Provincia de Córdoba, Argentina",1/4/2020,General Paz,Ciudad de Cordoba,Pueyrredon,Este,Lima,0,EDIFICIO DE DEPARTAMENTOS,45.99,6,1,ESTANDAR,45000,-31.41283580,-64.18245580
recupeRuQlUttUATn,"Bv San Juan 900 Ciudad de Cordoba, Provincia de Córdoba, Argentina",1/4/2018,Observatorio,Ciudad de Cordoba,Mercado Central,Central,Bv San Juan,879,EDIFICIO DE DEPARTAMENTOS,45.99,4,1,ESTANDAR,45000,-31.41752390,-64.19779780
recetflIEnQvtv0kP,"Av Pueyrredon 800 Ciudad de Cordoba, Provincia de Córdoba, Argentina",1/4/2019,Guemes,Ciudad de Cordoba,Mercado Central,Central,Av Pueyrredon,724,COMPLEJO CERRADO,48.00,7,1,ESTANDAR,45000,-31.42399220,-64.19905340
recf2jD8UHk0qGogF,"ANACREONTE 2200 Ciudad de Cordoba, Provincia de Córdoba, Argentina",1/4/2019,Ana Maria Zumaran,Ciudad de Cordoba,Monseñor Pablo Cabrera,Norte 2,ANACREONTE,2190,EDIFICIO DE DEPARTAMENTOS,50.00,PLANTA BAJA,2,BAJA,45000,-31.37934210,-64.20300670
recxcKTT33dryJFwt,"Buenos Aires 500 Ciudad de Cordoba, Provincia de Córdoba, Argentina",1/4/2019,Nueva Cordoba,Ciudad de Cordoba,Mercado Central,Central,Buenos Aires,468,EDIFICIO DE DEPARTAMENTOS,45.99,6,1,ESTANDAR,45500,-31.42253120,-64.18519110
recbJvwx7qSN3IhgG,"Bv Illia 600 Ciudad de Cordoba, Provincia de Córdoba, Argentina",1/4/2020,Nueva Cordoba,Ciudad de Cordoba,Mercado Central,Central,Bv Illia,523,EDIFICIO DE DEPARTAMENTOS,40.66,14,1,ESTANDAR,46000,-31.42320100,-64.17785620
recFV1foJfgiiKker,"Bv Chacabuco 300 Ciudad de Cordoba, Provincia de Córdoba, Argentina",6/9/2021,Centro Sud (Av Colon hacia Nva Cba),Ciudad de Cordoba,Mercado Central,Central,Bv Chacabuco,281,EDIFICIO DE DEPARTAMENTOS,41.32,9,1,ESTANDAR,46000,-31.42059630,-64.18169380
receNaedoHGSUpLRy,"Av Pueyrredon  800 Ciudad de Cordoba, Provincia de Córdoba, Argentina",1/4/2018,Guemes,Ciudad de Cordoba,Mercado Central,Central,Av Pueyrredon ,724,COMPLEJO CERRADO,41.66,5,1,ESTANDAR,46000,-31.42399220,-64.19905340
recHEDv8KHifjFnXd,"Av Pueyrredon 800 Ciudad de Cordoba, Provincia de Córdoba, Argentina",6/9/2023,Guemes,Ciudad de Cordoba,Mercado Central,Central,Av Pueyrredon,724,COMPLEJO CERRADO,42.00,3,1,ESTANDAR,46000,-31.42399220,-64.19905340
rectUDkbBZFLXkv9g,"Viamonte 300 Ciudad de Cordoba, Provincia de Córdoba, Argentina",6/9/2021,General Paz,Ciudad de Cordoba,Pueyrredon,Este,Viamonte,300,EDIFICIO DE DEPARTAMENTOS,48.66,3,1,ESTANDAR,46500,-31.41250590,-64.16487070
recYPbxUIrknprSaH,"DUARTE QUIROS  2600 Ciudad de Cordoba, Provincia de Córdoba, Argentina",12/11/2023,Alto Alberdi,Ciudad de Cordoba,Colón,Oeste,DUARTE QUIROS ,2584,EDIFICIO DE DEPARTAMENTOS,50.97,7,1,ESTANDAR,46500,-31.40899580,-64.21778650
recWJkrWhjhAketpq,"Ituzaingó 600 Ciudad de Cordoba, Provincia de Córdoba, Argentina",4/10/2022,Nueva Cordoba,Ciudad de Cordoba,Mercado Central,Central,Ituzaingó,572,EDIFICIO DE DEPARTAMENTOS,36.00,4,1,ESTANDAR,47000,-31.42402790,-64.18464560
recsVrxCLHiIJ3Xp3,"Bv Illia  200 Ciudad de Cordoba, Provincia de Córdoba, Argentina",11/2/2023,Nueva Cordoba,Ciudad de Cordoba,Mercado Central,Central,Bv Illia ,196,EDIFICIO DE DEPARTAMENTOS,44.00,3,1,ESTANDAR,47000,-31.42133730,-64.18357950
recoH5dVxn0dgBVtg,"Güemes 600 Ciudad de Cordoba, Provincia de Córdoba, Argentina",6/9/2021,General Paz,Ciudad de Cordoba,Pueyrredon,Este,Güemes,600,EDIFICIO DE DEPARTAMENTOS,50.00,PLANTA BAJA,1,ESTANDAR,47000,-31.41275970,-64.16081850
recopX5EwdWnQBgxR,"La Rioja 200 Ciudad de Cordoba, Provincia de Córdoba, Argentina",9/8/2023,Centro Norte (Av. Colon hacia el Río),Ciudad de Cordoba,Mercado Central,Central,La Rioja,200,EDIFICIO DE DEPARTAMENTOS,67.31,4,2,ESTANDAR,47000,-31.41207200,-64.18844570
rec5CUgNx5alCxCKw,"Bolivar 500 Ciudad de Cordoba, Provincia de Córdoba, Argentina",6/9/2021,Guemes,Ciudad de Cordoba,Mercado Central,Central,Bolivar,475,EDIFICIO DE DEPARTAMENTOS,42.99,1,1,ESTANDAR,47300,-31.41995110,-64.19332220
recaOY39QNha368BP,"Santa Rosa 1500 Ciudad de Cordoba, Provincia de Córdoba, Argentina",7/10/2022,Alberdi,Ciudad de Cordoba,Mercado Central,Central,Santa Rosa,1489,EDIFICIO DE DEPARTAMENTOS,48.96,4,1,ESTANDAR,47500,-31.40692220,-64.20172210
recf4KSoyBgd3XpWg,"Ayacucho 400 Ciudad de Cordoba, Provincia de Córdoba, Argentina",1/4/2018,Centro Sud (Av Colon hacia Nva Cba),Ciudad de Cordoba,Mercado Central,Central,Ayacucho,396,EDIFICIO DE DEPARTAMENTOS,32.00,8,1,ESTANDAR,48000,-31.41964480,-64.19178800
recGKOqPhQmaZdsMO,"Av Velez Sarsfield 1100 Ciudad de Cordoba, Provincia de Córdoba, Argentina",1/4/2019,Nueva Cordoba,Ciudad de Cordoba,Mercado Central,Central,Av Velez Sarsfield,1063,EDIFICIO DE DEPARTAMENTOS,38.80,1,1,ESTANDAR,48000,-31.42783660,-64.19212120
recLEWIQx5bqQ0GN9,"Obispo Salguero 600 Ciudad de Cordoba, Provincia de Córdoba, Argentina",12/7/2023,Nueva Cordoba,Ciudad de Cordoba,Mercado Central,Central,Obispo Salguero,600,EDIFICIO DE DEPARTAMENTOS,40.00,5,1,ESTANDAR,48000,-31.42489450,-64.18199430
recFfSMtmROWNsK9A,"Obispo Salguero 600 Ciudad de Cordoba, Provincia de Córdoba, Argentina",9/8/2023,Nueva Cordoba,Ciudad de Cordoba,Mercado Central,Central,Obispo Salguero,600,EDIFICIO DE DEPARTAMENTOS,40.00,4,1,ESTANDAR,48000,-31.42489450,-64.18199430
recKQU7BO1fhunT4V,"Dean Funes 900 Ciudad de Cordoba, Provincia de Córdoba, Argentina",1/4/2018,Alberdi,Ciudad de Cordoba,Mercado Central,Central,Dean Funes,868,EDIFICIO DE DEPARTAMENTOS,42.00,5,1,ESTANDAR,48000,-31.41238440,-64.19599060
recmS95gVbeEIsIIM,"Av Velez Sarsfield 1100 Ciudad de Cordoba, Provincia de Córdoba, Argentina",1/4/2019,Nueva Cordoba,Ciudad de Cordoba,Mercado Central,Central,Av Velez Sarsfield,1100,EDIFICIO DE DEPARTAMENTOS,42.65,3,1,ESTANDAR,48000,-31.42783660,-64.19212120
recHaPiEozshDheba,"Buenos Aires  300 Ciudad de Cordoba, Provincia de Córdoba, Argentina",1/4/2020,Nueva Cordoba,Ciudad de Cordoba,Mercado Central,Central,Buenos Aires ,270,EDIFICIO DE DEPARTAMENTOS,43.98,3,1,ESTANDAR,48000,-31.41968910,-64.18418780
reclKUYNU5chM6zuu,"Av. Colón 6200 Ciudad de Cordoba, Provincia de Córdoba, Argentina",1/4/2018,Quebrada De Las Rosas,Ciudad de Cordoba,Colón,Oeste,Av. Colón,6200,COMPLEJO CERRADO,46.65,2,1,ESTANDAR,48000,-31.39260820,-64.26272820
rec0P2u3C6m3sTaTK,"Avellaneda 500 Ciudad de Cordoba, Provincia de Córdoba, Argentina",6/9/2021,Alberdi,Ciudad de Cordoba,Mercado Central,Central,Avellaneda,475,EDIFICIO DE DEPARTAMENTOS,48.99,11,1,ESTANDAR,48000,-31.40639460,-64.19398150
rec3odlW02jIGMeEL,"Buenos Aires 600 Ciudad de Cordoba, Provincia de Córdoba, Argentina",1/4/2019,Nueva Cordoba,Ciudad de Cordoba,Mercado Central,Central,Buenos Aires,521,EDIFICIO DE DEPARTAMENTOS,47.00,4,1,ESTANDAR,48500,-31.42341920,-64.18586000
recUJvOU6ULnoolV1,"Sagrada Familia 400 Ciudad de Cordoba, Provincia de Córdoba, Argentina",1/4/2018,Villa Alberdi,Ciudad de Cordoba,Colón,Oeste,Sagrada Familia,400,EDIFICIO DE DEPARTAMENTOS,48.30,3,1,ESTANDAR,48500,-31.39551370,-64.23413870
recXQ7cOIgiu4xBFv,"24 de Septiembre 900 Ciudad de Cordoba, Provincia de Córdoba, Argentina",1/4/2018,General Paz,Ciudad de Cordoba,Pueyrredon,Este,24 de Septiembre,859,EDIFICIO DE DEPARTAMENTOS,42.00,1,1,ESTANDAR,49000,-31.41504060,-64.17078860
recXPEyNIcj588ZMY,"Transito Caceres de Allende 500 Ciudad de Cordoba, Provincia de Córdoba, Argentina",6/9/2021,Nueva Cordoba,Ciudad de Cordoba,Mercado Central,Central,Transito Caceres de Allende,452,EDIFICIO DE DEPARTAMENTOS,49.32,6,1,ESTANDAR,49000,-31.42483900,-64.17737800
recrc1Fapxr8UPb5X,"9 de Julio  200 La Falda, Provincia de Córdoba, Argentina",1/4/2019,Centro,La Falda,,,9 de Julio ,166,FORMA PARTE DE UN PH ,82.32,1,2,ESTANDAR,49000,-31.09065010,-64.48443690
recTkTFWi9QACjGKL,"La Plata 100 La Falda, Provincia de Córdoba, Argentina",1/4/2020,Centro,La Falda,,,La Plata,58,EDIFICIO DE DEPARTAMENTOS,42.62,PLANTA BAJA,1,PREMIUM,49750,-31.09179470,-64.48154090
recb8Ytm4zOfDUglU,"AYACUCHO 400 Ciudad de Cordoba, Provincia de Córdoba, Argentina",12/6/2023,Centro Sud (Av Colon hacia Nva Cba),Ciudad de Cordoba,Mercado Central,Central,AYACUCHO,397,EDIFICIO DE DEPARTAMENTOS,37.00,6,1,ESTANDAR,50000,-31.41964480,-64.19178800
recs5JKhxUALvAX4V,"Ambrosio Olmos 800 Ciudad de Cordoba, Provincia de Córdoba, Argentina",1/4/2020,Nueva Cordoba,Ciudad de Cordoba,Mercado Central,Central,Ambrosio Olmos,750,EDIFICIO DE DEPARTAMENTOS,38.00,6,1,ESTANDAR,50000,-31.43101860,-64.19051850
recdhdAHj9Z70D1Wn,"CASEROS 900 Ciudad de Cordoba, Provincia de Córdoba, Argentina",12/6/2023,Alberdi,Ciudad de Cordoba,Mercado Central,Central,CASEROS,900,EDIFICIO DE DEPARTAMENTOS,40.50,5,1,ESTANDAR,50000,-31.41459290,-64.19701180
recOmAa0QxBHKaIe9,"Lima 1400 Ciudad de Cordoba, Provincia de Córdoba, Argentina",6/9/2021,General Paz,Ciudad de Cordoba,Pueyrredon,Este,Lima,1367,EDIFICIO DE DEPARTAMENTOS,41.32,2,1,ESTANDAR,50000,-31.41256720,-64.16533950
reczgh0Xyfh30f0Xp,"Fructuoso Rivera 400 Ciudad de Cordoba, Provincia de Córdoba, Argentina",1/4/2019,Nueva Cordoba,Ciudad de Cordoba,Mercado Central,Central,Fructuoso Rivera,400,EDIFICIO DE DEPARTAMENTOS,41.66,10,1,ESTANDAR,50000,-31.42481430,-64.19398620
receXdyJNKVHvF1Id,"BALCARCE 500 Ciudad de Cordoba, Provincia de Córdoba, Argentina",1/4/2020,Nueva Cordoba,Ciudad de Cordoba,Mercado Central,Central,BALCARCE,430,EDIFICIO DE DEPARTAMENTOS,43.20,PLANTA BAJA,1,ESTANDAR,50000,-31.42456020,-64.17869810
reczPihmPrNT9GmLG,"felix frias 100 Ciudad de Cordoba, Provincia de Córdoba, Argentina",1/4/2019,General Paz,Ciudad de Cordoba,Pueyrredon,Este,felix frias,24,EDIFICIO DE DEPARTAMENTOS,43.98,4,1,ESTANDAR,50000,-31.41573680,-64.16917580
recwaN6dWObl0dwtg,"Boulevard San Juan 800 Ciudad de Cordoba, Provincia de Córdoba, Argentina",1/4/2018,Nueva Cordoba,Ciudad de Cordoba,Mercado Central,Central,Boulevard San Juan,800,EDIFICIO DE DEPARTAMENTOS,45.66,6,1,ESTANDAR,50000,-31.41786560,-64.19657100
rec7E7enVX96N1Ils,"Obispo Trejo  1300 Ciudad de Cordoba, Provincia de Córdoba, Argentina",1/4/2018,Nueva Cordoba,Ciudad de Cordoba,Mercado Central,Central,Obispo Trejo ,1214,EDIFICIO DE DEPARTAMENTOS,45.66,6,1,ESTANDAR,50000,-31.43074620,-64.19183820
recPcloVorUzfr0yt,"bv san juan  600 Ciudad de Cordoba, Provincia de Córdoba, Argentina",1/4/2020,Observatorio,Ciudad de Cordoba,Mercado Central,Central,bv san juan ,593,EDIFICIO DE DEPARTAMENTOS,45.98,6,1,ESTANDAR,50000,-31.41856760,-64.19411220
recJ9B758DWQ0DyMg,"Obispo Trejo  900 Ciudad de Cordoba, Provincia de Córdoba, Argentina",1/4/2018,Nueva Cordoba,Ciudad de Cordoba,Mercado Central,Central,Obispo Trejo ,828,EDIFICIO DE DEPARTAMENTOS,45.99,9,1,ESTANDAR,50000,-31.42634680,-64.18988990
recoWd8MZz0HSS8LE,"Bv Chacabuco 500 Ciudad de Cordoba, Provincia de Córdoba, Argentina",6/9/2021,Nueva Cordoba,Ciudad de Cordoba,Mercado Central,Central,Bv Chacabuco,463,EDIFICIO DE DEPARTAMENTOS,46.65,6,1,ESTANDAR,50000,-31.42331240,-64.18288410
recsAYpwmvkxykkgg,"Ovidio Lagos 100 Ciudad de Cordoba, Provincia de Córdoba, Argentina",9/7/2021,General Paz,Ciudad de Cordoba,Pueyrredon,Este,Ovidio Lagos,31,EDIFICIO DE DEPARTAMENTOS,47.00,4,1,ESTANDAR,50000,-31.41633250,-64.17155230
recug8ZK1OvNAHMwH,"9 de julio 1300 La Falda, Provincia de Córdoba, Argentina",1/4/2020,Centro,La Falda,,,9 de julio,1265,FORMA PARTE DE UN PH ,49.80,PLANTA BAJA,1,ESTANDAR,50000,-31.08895480,-64.47141870
recPV4kyh6qITWYgo,"calasanz 100 Ciudad de Cordoba, Provincia de Córdoba, Argentina",1/4/2018,Alberdi,Ciudad de Cordoba,Mercado Central,Central,calasanz,49,EDIFICIO DE DEPARTAMENTOS,50.00,2,2,ESTANDAR,50000,-31.41344920,-64.19661350
recNlkx08OadQzci7,"Roma 200 Ciudad de Cordoba, Provincia de Córdoba, Argentina",6/9/2021,General Paz,Ciudad de Cordoba,Pueyrredon,Este,Roma,150,EDIFICIO DE DEPARTAMENTOS,50.32,7,1,ESTANDAR,50000,-31.41293130,-64.16348390
rec8mMHayrKiJU2ZO,"Juan del Campillo 1000 Ciudad de Cordoba, Provincia de Córdoba, Argentina",9/8/2022,Cofico,Ciudad de Cordoba,Centroamérica,Central,Juan del Campillo,988,EDIFICIO DE DEPARTAMENTOS,51.65,2,1,ESTANDAR,50000,-31.39763430,-64.19108470
rec58iFvvIrFpmCtu,"Av Velez Sarsfield 1900 Ciudad de Cordoba, Provincia de Córdoba, Argentina",1/4/2020,Guemes,Ciudad de Cordoba,Mercado Central,Central,Av Velez Sarsfield,1802,EDIFICIO DE DEPARTAMENTOS,66.00,PLANTA BAJA,2,ESTANDAR,50000,-31.43636070,-64.19545710
receLd24xVPeH8DfT,"24 de septiembre  900 Ciudad de Cordoba, Provincia de Córdoba, Argentina",1/4/2019,General Paz,Ciudad de Cordoba,Pueyrredon,Este,24 de septiembre ,859,EDIFICIO DE DEPARTAMENTOS,38.00,2,1,ESTANDAR,50500,-31.41504060,-64.17078860
recGvUFO4zNBzgQHU,"MIGUEL DE CORRO 100 Ciudad de Cordoba, Provincia de Córdoba, Argentina",1/4/2018,Centro Sud (Av Colon hacia Nva Cba),Ciudad de Cordoba,Mercado Central,Central,MIGUEL DE CORRO,46,EDIFICIO DE DEPARTAMENTOS,42.00,4,1,ESTANDAR,50900,-31.41263060,-64.18594630
recelbM0VvyXiBwWT,"Obispo Trejo 800 Ciudad de Cordoba, Provincia de Córdoba, Argentina",1/4/2018,Nueva Cordoba,Ciudad de Cordoba,Mercado Central,Central,Obispo Trejo,783,EDIFICIO DE DEPARTAMENTOS,41.66,2,1,ESTANDAR,51000,-31.42515940,-64.18947050
recH94DORETwxv9Ep,"Obispo Trejo 800 Ciudad de Cordoba, Provincia de Córdoba, Argentina",1/4/2018,Nueva Cordoba,Ciudad de Cordoba,Mercado Central,Central,Obispo Trejo,783,EDIFICIO DE DEPARTAMENTOS,41.99,2,1,ESTANDAR,51000,-31.42515940,-64.18947050
recOnAmnptsjluHEK,"Lima 1700 Ciudad de Cordoba, Provincia de Córdoba, Argentina",7/11/2022,General Paz,Ciudad de Cordoba,Pueyrredon,Este,Lima,1695,EDIFICIO DE DEPARTAMENTOS,49.98,3,1,ESTANDAR,51000,-31.41152100,-64.16159510
recgYAuRRlXcSl1h2,"la rioja 500 Ciudad de Cordoba, Provincia de Córdoba, Argentina",1/4/2019,Centro America,Ciudad de Cordoba,Centroamérica,Nor Este,la rioja,415,EDIFICIO DE DEPARTAMENTOS,64.00,3,2,ESTANDAR,51000,-31.40930560,-64.18902230
recOFAIyc90D1UWgq,"Gral Deheza 600 Ciudad de Cordoba, Provincia de Córdoba, Argentina",6/8/2023,General Paz,Ciudad de Cordoba,Pueyrredon,Este,Gral Deheza,600,EDIFICIO DE DEPARTAMENTOS,43.66,1,1,ESTANDAR,51500,-31.40861810,-64.16389200
rechCsnuAOzLco5wd,"Viamonte 300 Ciudad de Cordoba, Provincia de Córdoba, Argentina",1/4/2018,General Paz,Ciudad de Cordoba,Pueyrredon,Este,Viamonte,300,EDIFICIO DE DEPARTAMENTOS,46.65,2,1,ESTANDAR,51500,-31.41250590,-64.16487070
recvdkKRb1WgE3fbi,"Emilio Olmos 400 Ciudad de Cordoba, Provincia de Córdoba, Argentina",1/4/2018,Centro Norte (Av. Colon hacia el Río),Ciudad de Cordoba,Mercado Central,Central,Emilio Olmos,334,EDIFICIO DE DEPARTAMENTOS,58.66,3,2,ESTANDAR,51500,-31.41207200,-64.18844570
rec04ZjJ79ad8zgwe,"24 de Septiembre 1200 Ciudad de Cordoba, Provincia de Córdoba, Argentina",7/10/2022,General Paz,Ciudad de Cordoba,Pueyrredon,Este,24 de Septiembre,1170,EDIFICIO DE DEPARTAMENTOS,51.40,PLANTA BAJA,1,ESTANDAR,51700,-31.41422720,-64.16726890
recTGeGByZdFx37Ts,"Bolivar 500 Ciudad de Cordoba, Provincia de Córdoba, Argentina",1/4/2020,Guemes,Ciudad de Cordoba,Mercado Central,Central,Bolivar,467,EDIFICIO DE DEPARTAMENTOS,40.00,1,1,ESTANDAR,52000,-31.41995110,-64.19332220
recBhHdbMbthjOqUU,"Buenos Aires 800 Ciudad de Cordoba, Provincia de Córdoba, Argentina",1/4/2020,Nueva Cordoba,Ciudad de Cordoba,Mercado Central,Central,Buenos Aires,780,EDIFICIO DE DEPARTAMENTOS,40.99,5,1,ESTANDAR,52000,-31.42579300,-64.18672960
rec2LWnBA2PPCxgWt,"Bv Chacabuco 300 Ciudad de Cordoba, Provincia de Córdoba, Argentina",1/4/2018,Centro Sud (Av Colon hacia Nva Cba),Ciudad de Cordoba,Mercado Central,Central,Bv Chacabuco,281,EDIFICIO DE DEPARTAMENTOS,41.32,11,MONOAMBIENTE,ESTANDAR,52000,-31.42059630,-64.18169380
rec2zVLpUFQOhpqUo,"Bv Illia 400 Ciudad de Cordoba, Provincia de Córdoba, Argentina",6/9/2021,Nueva Cordoba,Ciudad de Cordoba,Mercado Central,Central,Bv Illia,396,EDIFICIO DE DEPARTAMENTOS,42.98,1,1,ESTANDAR,52000,-31.42252820,-64.18076390
recuQBJTpXaBLrhKk,"Mariano Castex 200 Ciudad de Cordoba, Provincia de Córdoba, Argentina",8/1/2023,Alto Alberdi,Ciudad de Cordoba,Colón,Oeste,Mariano Castex,117,EDIFICIO DE DEPARTAMENTOS,44.00,1,1,ESTANDAR,52000,-31.40376130,-64.21595260
rec5B8aIhaUBTT7vh,"Fructuoso Rivera 100 Ciudad de Cordoba, Provincia de Córdoba, Argentina",1/4/2018,Nueva Cordoba,Ciudad de Cordoba,Mercado Central,Central,Fructuoso Rivera,100,EDIFICIO DE DEPARTAMENTOS,45.40,1,1,ESTANDAR,52000,-31.42626270,-64.18988250
recf0XdUVZL1OcXlO,"Lima 1700 Ciudad de Cordoba, Provincia de Córdoba, Argentina",9/9/2022,General Paz,Ciudad de Cordoba,Pueyrredon,Este,Lima,1695,EDIFICIO DE DEPARTAMENTOS,46.65,4,1,ESTANDAR,52000,-31.41152100,-64.16159510
rec4b0q4DKQx7jjLN,"Bv San Juan 0 Ciudad de Cordoba, Provincia de Córdoba, Argentina",1/4/2018,Nueva Cordoba,Ciudad de Cordoba,Mercado Central,Central,Bv San Juan,0,EDIFICIO DE DEPARTAMENTOS,49.65,10,1,ESTANDAR,52000,-31.42079250,-64.18605590
reckmRF2NF10H9PHt,"Buenos Aires 600 Ciudad de Cordoba, Provincia de Córdoba, Argentina",5/10/2024,Nueva Cordoba,Ciudad de Cordoba,Mercado Central,Central,Buenos Aires,540,FORMA PARTE DE UN PH ,60.00,PLANTA BAJA,2,BAJA,52000,-31.42341920,-64.18586000
rec48WaZMUrBOWwmP,"Bv Illia 600 Ciudad de Cordoba, Provincia de Córdoba, Argentina",6/9/2021,Nueva Cordoba,Ciudad de Cordoba,Mercado Central,Central,Bv Illia,531,EDIFICIO DE DEPARTAMENTOS,41.65,6,1,ESTANDAR,52500,-31.42320100,-64.17785620
recS8bjl0CC29Bwqo,"Independencia 700 Ciudad de Cordoba, Provincia de Córdoba, Argentina",1/4/2020,Nueva Cordoba,Ciudad de Cordoba,Mercado Central,Central,Independencia,620,EDIFICIO DE DEPARTAMENTOS,41.65,13,1,ESTANDAR,52500,-31.42429610,-64.18744830
recb7CVSVQMnVlAAI,"Lima 1400 Ciudad de Cordoba, Provincia de Córdoba, Argentina",6/9/2021,General Paz,Ciudad de Cordoba,Pueyrredon,Este,Lima,1367,EDIFICIO DE DEPARTAMENTOS,40.00,4,1,ESTANDAR,52600,-31.41256720,-64.16533950
rec6ums2oaX0ymoTa,"Juan del Campillo 600 Ciudad de Cordoba, Provincia de Córdoba, Argentina",6/9/2021,Alta Cordoba,Ciudad de Cordoba,Centroamérica,Central,Juan del Campillo,569,EDIFICIO DE DEPARTAMENTOS,40.64,7,1,ESTANDAR,52800,-31.39938000,-64.18573470
recsGbJaEZUbyL6NF,"Obispo Trejo  1300 Ciudad de Cordoba, Provincia de Córdoba, Argentina",1/4/2019,Nueva Cordoba,Ciudad de Cordoba,Mercado Central,Central,Obispo Trejo ,1214,EDIFICIO DE DEPARTAMENTOS,41.65,5,1,ESTANDAR,53000,-31.43074620,-64.19183820
recyL3Gy83pxZe5lQ,"Malagueño 1100 Ciudad de Cordoba, Provincia de Córdoba, Argentina",1/4/2020,Jardin,Ciudad de Cordoba,Jardín,Sur,Malagueño,1092,EDIFICIO DE DEPARTAMENTOS,42.00,PLANTA BAJA,1,ESTANDAR,53000,-31.44206770,-64.17972890
recrunvcDBp98rSso,"David Luque 400 Ciudad de Cordoba, Provincia de Córdoba, Argentina",1/4/2020,General Paz,Ciudad de Cordoba,Pueyrredon,Este,David Luque,359,EDIFICIO DE DEPARTAMENTOS,42.99,1,1,ESTANDAR,53000,-31.41236390,-64.16898100
recMhMsOa7InDogns,"San Martin 1600 Ciudad de Cordoba, Provincia de Córdoba, Argentina",2/9/2024,Alta Cordoba,Ciudad de Cordoba,Centroamérica,Central,San Martin,1565,EDIFICIO DE DEPARTAMENTOS,43.52,6,1,ESTANDAR,53000,-31.39991980,-64.17687620
recgC23LATaQeyozp,"Obispo Trejo 1200 Ciudad de Cordoba, Provincia de Córdoba, Argentina",1/4/2018,Nueva Cordoba,Ciudad de Cordoba,Mercado Central,Central,Obispo Trejo,1180,EDIFICIO DE DEPARTAMENTOS,45.00,10,1,ESTANDAR,53000,-31.42943440,-64.19126970
recH47EnWmMyiFEsH,"Roma 200 Ciudad de Cordoba, Provincia de Córdoba, Argentina",6/9/2021,General Paz,Ciudad de Cordoba,Pueyrredon,Este,Roma,150,EDIFICIO DE DEPARTAMENTOS,50.32,6,1,ESTANDAR,53500,-31.41293130,-64.16348390
recV3cQ2ge45e1XHX,"Luis Agote 2000 Ciudad de Cordoba, Provincia de Córdoba, Argentina",9/8/2022,Avenida,Ciudad de Cordoba,Ruta 20,Oeste-R20,Luis Agote,1924,EDIFICIO DE DEPARTAMENTOS,57.98,1,1,ESTANDAR,53500,-31.42670780,-64.21560180
recUihwWJxLOl5r70,"SOL DE MAYO  1400 Ciudad de Cordoba, Provincia de Córdoba, Argentina",12/11/2023,Los Naranjos,Ciudad de Cordoba,Ruta 20,Oeste-R20,SOL DE MAYO ,1375,COMPLEJO CERRADO,43.32,2,1,PREMIUM,54000,-31.42718800,-64.21333570
rec6P2shj5SNRUZ8F,"Gral Paz 1500 Ciudad de Cordoba, Provincia de Córdoba, Argentina",1/4/2020,Cofico,Ciudad de Cordoba,Centroamérica,Central,Gral Paz,1420,EDIFICIO DE DEPARTAMENTOS,62.64,1,2,ESTANDAR,54000,-31.40020390,-64.17992130
recjMd8A1uXyugtaO,"SOL DE MAYO  1400 Ciudad de Cordoba, Provincia de Córdoba, Argentina",12/11/2023,Avenida,Ciudad de Cordoba,Ruta 20,Oeste-R20,SOL DE MAYO ,1375,COMPLEJO CERRADO,42.32,2,1,PREMIUM,54500,-31.42718800,-64.21333570
recsYIQp72DPKBvLy,"SOL DE MAYO  1400 Ciudad de Cordoba, Provincia de Córdoba, Argentina",12/11/2023,Avenida,Ciudad de Cordoba,Ruta 20,Oeste-R20,SOL DE MAYO ,1375,COMPLEJO CERRADO,42.32,3,1,PREMIUM,54500,-31.42718800,-64.21333570
reccGOYeWG4RSxGrx,"Brasil  200 Ciudad de Cordoba, Provincia de Córdoba, Argentina",1/4/2019,Nueva Cordoba,Ciudad de Cordoba,Mercado Central,Central,Brasil ,134,EDIFICIO DE DEPARTAMENTOS,46.65,6,1,ESTANDAR,54500,-31.42892430,-64.19234300
recP9cfcDE0SLMWy4,"Bv Illia 600 Ciudad de Cordoba, Provincia de Córdoba, Argentina",6/9/2021,Nueva Cordoba,Ciudad de Cordoba,Mercado Central,Central,Bv Illia,531,EDIFICIO DE DEPARTAMENTOS,40.66,9,1,ESTANDAR,55000,-31.42320100,-64.17785620
recxkVEfZd9J2ommf,"Av. Colón 6200 Ciudad de Cordoba, Provincia de Córdoba, Argentina",1/4/2019,Quebrada De Las Rosas,Ciudad de Cordoba,Colón,Oeste,Av. Colón,6200,COMPLEJO CERRADO,40.66,5,1,ESTANDAR,55000,-31.39260820,-64.26272820
rectfESsTQuYjLVlN,"Bv Chacabuco 800 Ciudad de Cordoba, Provincia de Córdoba, Argentina",6/9/2021,Nueva Cordoba,Ciudad de Cordoba,Mercado Central,Central,Bv Chacabuco,788,EDIFICIO DE DEPARTAMENTOS,42.66,2,1,ESTANDAR,55000,-31.42672270,-64.18383860
recC99RsQ344vqF5a,"Bolivar 500 Ciudad de Cordoba, Provincia de Córdoba, Argentina",1/4/2018,Guemes,Ciudad de Cordoba,Mercado Central,Central,Bolivar,475,EDIFICIO DE DEPARTAMENTOS,43.20,3,1,ESTANDAR,55000,-31.41995110,-64.19332220
rec2DoR0kiSiB7255,"Bv Peron 1200 Ciudad de Cordoba, Provincia de Córdoba, Argentina",7/11/2024,Crisol Norte,Ciudad de Cordoba,Empalme,Este,Bv Peron,1150,COMPLEJO CERRADO,43.65,9,1,ESTANDAR,55000,-31.42505090,-64.16906020
rec2sDJpFRwdop1Qw,"Catamarca 1300 Ciudad de Cordoba, Provincia de Córdoba, Argentina",1/4/2019,General Paz,Ciudad de Cordoba,Pueyrredon,Este,Catamarca,1252,EDIFICIO DE DEPARTAMENTOS,43.99,5,1,ESTANDAR,55000,-31.41181680,-64.16684010
recZO0Jjg8sVy2rjV,"Mariano Castex 200 Ciudad de Cordoba, Provincia de Córdoba, Argentina",1/4/2018,Alto Alberdi,Ciudad de Cordoba,Colón,Oeste,Mariano Castex,117,EDIFICIO DE DEPARTAMENTOS,45.46,7,1,ESTANDAR,55000,-31.40376130,-64.21595260
recAf13uBbSgLkvKb,"Santiago Temple  300 Ciudad de Cordoba, Provincia de Córdoba, Argentina",1/4/2019,Guemes,Ciudad de Cordoba,Mercado Central,Central,Santiago Temple ,215,EDIFICIO DE DEPARTAMENTOS,45.66,7,1,ESTANDAR,55000,-31.43101750,-64.19523310
recjZFp0jLIJFUe9H,"Mariano Castex 200 Ciudad de Cordoba, Provincia de Córdoba, Argentina",1/4/2020,Alto Alberdi,Ciudad de Cordoba,Colón,Oeste,Mariano Castex,117,EDIFICIO DE DEPARTAMENTOS,45.79,1,1,ESTANDAR,55000,-31.40376130,-64.21595260
recpHJKjvD8qS5kh0,"Mariano Castex 200 Ciudad de Cordoba, Provincia de Córdoba, Argentina",7/4/2022,Alto Alberdi,Ciudad de Cordoba,Colón,Oeste,Mariano Castex,117,EDIFICIO DE DEPARTAMENTOS,45.79,7,1,ESTANDAR,55000,-31.40376130,-64.21595260
recyiqiNwwavKRp5q,"Mariano Castex 200 Ciudad de Cordoba, Provincia de Córdoba, Argentina",8/1/2023,Alto Alberdi,Ciudad de Cordoba,Colón,Oeste,Mariano Castex,117,EDIFICIO DE DEPARTAMENTOS,45.79,5,1,ESTANDAR,55000,-31.40376130,-64.21595260
rec551UtueDksFKZg,"Bolivar 500 Ciudad de Cordoba, Provincia de Córdoba, Argentina",6/9/2021,Guemes,Ciudad de Cordoba,Mercado Central,Central,Bolivar,475,EDIFICIO DE DEPARTAMENTOS,46.32,7,1,ESTANDAR,55000,-31.41995110,-64.19332220
rec9tJMVNNC9mZwlS,"Lima  1200 Ciudad de Cordoba, Provincia de Córdoba, Argentina",12/12/2023,General Paz,Ciudad de Cordoba,Pueyrredon,Este,Lima ,1168,EDIFICIO DE DEPARTAMENTOS,46.65,6,1,ESTANDAR,55000,-31.41320720,-64.16760050
recBk2egTgSwVVYS8,"Duarte Quiros 1000 Ciudad de Cordoba, Provincia de Córdoba, Argentina",1/4/2020,Alberdi,Ciudad de Cordoba,Mercado Central,Central,Duarte Quiros,987,EDIFICIO DE DEPARTAMENTOS,46.80,6,1,ESTANDAR,55000,-31.41532490,-64.19853740
recBu8jQGAOUsmlzQ,"La Plata 100 La Falda, Provincia de Córdoba, Argentina",1/4/2019,Centro,La Falda,,,La Plata,58,EDIFICIO DE DEPARTAMENTOS,47.97,1,1,PREMIUM,55000,-31.09179470,-64.48154090
recvySLvAtL92zlMc,"Roma 200 Ciudad de Cordoba, Provincia de Córdoba, Argentina",1/4/2019,General Paz,Ciudad de Cordoba,Pueyrredon,Este,Roma,140,EDIFICIO DE DEPARTAMENTOS,51.97,3,1,ESTANDAR,55000,-31.41293130,-64.16348390
recARbdIzjdVb4ulA,"Dr. Francisco Muñiz 800 Rio Cuarto, Provincia de Córdoba, Argentina",1/4/2019,Banda Norte,Rio Cuarto,,,Dr. Francisco Muñiz,800,EDIFICIO DE DEPARTAMENTOS,52.66,11,1,ESTANDAR,55000,-33.11175300,-64.32800900
recp8oSuqbb8YG28x,"Lima 1600 Ciudad de Cordoba, Provincia de Córdoba, Argentina",1/4/2018,General Paz,Ciudad de Cordoba,Pueyrredon,Este,Lima,1600,EDIFICIO DE DEPARTAMENTOS,40.66,1,1,ESTANDAR,56000,-31.41159150,-64.16266230
recqBel6Cy76I8lpi,"Bv Chacabuco 300 Ciudad de Cordoba, Provincia de Córdoba, Argentina",6/9/2021,Centro Sud (Av Colon hacia Nva Cba),Ciudad de Cordoba,Mercado Central,Central,Bv Chacabuco,281,EDIFICIO DE DEPARTAMENTOS,41.32,10,1,ESTANDAR,56000,-31.42059630,-64.18169380
recTIgerKUsR3F0xl,"Av Estrada 200 Ciudad de Cordoba, Provincia de Córdoba, Argentina",6/9/2021,Nueva Cordoba,Ciudad de Cordoba,Mercado Central,Central,Av Estrada,136,EDIFICIO DE DEPARTAMENTOS,41.65,5,1,ESTANDAR,56000,-31.42845220,-64.18563420
recG5IU1tqKq9MAvj,"Chacabuco 500 Ciudad de Cordoba, Provincia de Córdoba, Argentina",1/4/2018,Nueva Cordoba,Ciudad de Cordoba,Mercado Central,Central,Chacabuco,480,EDIFICIO DE DEPARTAMENTOS,42.66,10,1,ESTANDAR,56000,-31.42331240,-64.18288410
rec0fJfbMeOnSCmyY,"Brasil 200 Ciudad de Cordoba, Provincia de Córdoba, Argentina",1/4/2020,Nueva Cordoba,Ciudad de Cordoba,Mercado Central,Central,Brasil,134,EDIFICIO DE DEPARTAMENTOS,46.65,1,1,ESTANDAR,56100,-31.42892430,-64.19234300
recO2yueD1VQ46Out,"Lima 1700 Ciudad de Cordoba, Provincia de Córdoba, Argentina",1/4/2019,General Paz,Ciudad de Cordoba,Pueyrredon,Este,Lima,1695,EDIFICIO DE DEPARTAMENTOS,53.30,1,1,ESTANDAR,56500,-31.41152100,-64.16159510
recznUe0qpesvOM4h,"Buenos Aires 1300 Ciudad de Cordoba, Provincia de Córdoba, Argentina",6/3/2024,Nueva Cordoba,Ciudad de Cordoba,Mercado Central,Central,Buenos Aires,1220,EDIFICIO DE DEPARTAMENTOS,33.66,6,1,ESTANDAR,57000,-31.43150800,-64.18920730
rec82KdwHlRW5x6i5,"bv. chacabuco 600 Ciudad de Cordoba, Provincia de Córdoba, Argentina",1/4/2018,Nueva Cordoba,Ciudad de Cordoba,Mercado Central,Central,bv. chacabuco,600,EDIFICIO DE DEPARTAMENTOS,43.00,4,1,ESTANDAR,57000,-31.42440430,-64.18276050
rech9f3OWUhe82z7T,"24 de Septiembre 1200 Ciudad de Cordoba, Provincia de Córdoba, Argentina",6/9/2021,General Paz,Ciudad de Cordoba,Pueyrredon,Este,24 de Septiembre,1170,EDIFICIO DE DEPARTAMENTOS,46.32,4,1,ESTANDAR,57000,-31.41422720,-64.16726890
recbbVMCfSqn1CL6L,"Bv. Illia  600 Ciudad de Cordoba, Provincia de Córdoba, Argentina",12/7/2023,Centro Sud (Av Colon hacia Nva Cba),Ciudad de Cordoba,Mercado Central,Central,Bv. Illia ,600,EDIFICIO DE DEPARTAMENTOS,47.32,3,1,ESTANDAR,57000,-31.42320100,-64.17785620
rec6zeSEiPoVgawY5,"Fructuoso Rivera 200 Ciudad de Cordoba, Provincia de Córdoba, Argentina",6/9/2021,Nueva Cordoba,Ciudad de Cordoba,Mercado Central,Central,Fructuoso Rivera,150,EDIFICIO DE DEPARTAMENTOS,48.97,1,1,ESTANDAR,57000,-31.42575030,-64.19093040
recLUOvb5i2YB9Krj,"Bv Pte. Umberto Arturo Illia 700 Ciudad de Cordoba, Provincia de Córdoba, Argentina",1/4/2019,Centro Sud (Av Colon hacia Nva Cba),Ciudad de Cordoba,Mercado Central,Central,Bv Pte. Umberto Arturo Illia,625,EDIFICIO DE DEPARTAMENTOS,50.62,5,1,ESTANDAR,57000,-31.42347340,-64.17697060
recuOHMbZyJN4s5tM,"Buenos Aires 1200 Ciudad de Cordoba, Provincia de Córdoba, Argentina",1/4/2018,Nueva Cordoba,Ciudad de Cordoba,Mercado Central,Central,Buenos Aires,1159,EDIFICIO DE DEPARTAMENTOS,79.32,1,2,ESTANDAR,57000,-31.43010970,-64.18867570
recsHlRIjS25ldxDI,"Av Velez Sarsfield 800 Ciudad de Cordoba, Provincia de Córdoba, Argentina",6/9/2021,Guemes,Ciudad de Cordoba,Mercado Central,Central,Av Velez Sarsfield,764,EDIFICIO DE DEPARTAMENTOS,40.66,9,1,ESTANDAR,57500,-31.42472590,-64.19088850
recK3eABjKsITf0Fm,"Chacabuco 700 Ciudad de Cordoba, Provincia de Córdoba, Argentina",12/6/2023,Nueva Cordoba,Ciudad de Cordoba,Mercado Central,Central,Chacabuco,635,EDIFICIO DE DEPARTAMENTOS,43.32,11,1,ESTANDAR,57500,-31.42553410,-64.18332620
recLrJhCWp8mjdAcZ,"San Lorenzo 400 Ciudad de Cordoba, Provincia de Córdoba, Argentina",1/4/2019,Nueva Cordoba,Ciudad de Cordoba,Mercado Central,Central,San Lorenzo,343,EDIFICIO DE DEPARTAMENTOS,44.65,7,1,ESTANDAR,57500,-31.42479500,-64.18165750
recjcdnzaweLxSMTU,"avellaneda 1400 Ciudad de Cordoba, Provincia de Córdoba, Argentina",1/4/2019,Cofico,Ciudad de Cordoba,Centroamérica,Central,avellaneda,1352,EDIFICIO DE DEPARTAMENTOS,67.31,2,2,ESTANDAR,57500,-31.39841180,-64.18958980
recVHOyFOmvQCiUyf,"CATAMARCA 1000 Ciudad de Cordoba, Provincia de Córdoba, Argentina",12/6/2023,General Paz,Ciudad de Cordoba,Pueyrredon,Este,CATAMARCA,1000,EDIFICIO DE DEPARTAMENTOS,36.00,2,1,ESTANDAR,58000,-31.41284030,-64.17042020
recYOhEQKF2XjrDkC,"BV. ILLIA  400 Ciudad de Cordoba, Provincia de Córdoba, Argentina",1/4/2018,Nueva Cordoba,Ciudad de Cordoba,Mercado Central,Central,BV. ILLIA ,400,EDIFICIO DE DEPARTAMENTOS,38.66,5,1,ESTANDAR,58000,-31.42252820,-64.18076390
receMKFxhoDE2nKCt,"Ovidio Lagos 300 Ciudad de Cordoba, Provincia de Córdoba, Argentina",12/12/2023,General Paz,Ciudad de Cordoba,Pueyrredon,Este,Ovidio Lagos,262,EDIFICIO DE DEPARTAMENTOS,40.99,4,1,ESTANDAR,58000,-31.41417000,-64.17231340
reclFi3A6qa0nFQdW,"Bv Illia 400 Ciudad de Cordoba, Provincia de Córdoba, Argentina",1/4/2018,Nueva Cordoba,Ciudad de Cordoba,Mercado Central,Central,Bv Illia,396,EDIFICIO DE DEPARTAMENTOS,41.99,11,1,ESTANDAR,58000,-31.42252820,-64.18076390
recJevC3GHMlrsGEV,"uis agote  1900 Ciudad de Cordoba, Provincia de Córdoba, Argentina",8/4/2023,Avenida,Ciudad de Cordoba,Ruta 20,Oeste-R20,uis agote ,1833,EDIFICIO DE DEPARTAMENTOS,43.32,3,1,PREMIUM,58000,-31.42670580,-64.21403190
reclaSnNhobNadbem,"Fructuoso Rivera 200 Ciudad de Cordoba, Provincia de Córdoba, Argentina",6/9/2021,Nueva Cordoba,Ciudad de Cordoba,Mercado Central,Central,Fructuoso Rivera,150,EDIFICIO DE DEPARTAMENTOS,43.98,2,1,ESTANDAR,58000,-31.42575030,-64.19093040
recffRpLicY7hv7jF,"Buenos Aires 900 Ciudad de Cordoba, Provincia de Córdoba, Argentina",6/9/2021,Nueva Cordoba,Ciudad de Cordoba,Mercado Central,Central,Buenos Aires,889,EDIFICIO DE DEPARTAMENTOS,45.66,1,1,ESTANDAR,58000,-31.42772670,-64.18733220
recABq8OYy2KrMGbH,"Fructuoso Rivera 200 Ciudad de Cordoba, Provincia de Córdoba, Argentina",6/9/2021,Nueva Cordoba,Ciudad de Cordoba,Mercado Central,Central,Fructuoso Rivera,150,EDIFICIO DE DEPARTAMENTOS,48.97,2,1,ESTANDAR,58000,-31.42575030,-64.19093040
recGCsFGYiLz6k7TJ,"Luis Agote 1900 Ciudad de Cordoba, Provincia de Córdoba, Argentina",1/4/2018,Avenida,Ciudad de Cordoba,Ruta 20,Oeste-R20,Luis Agote,1804,COMPLEJO CERRADO,60.14,2,1,PREMIUM,58000,-31.42670580,-64.21403190
rec1Ms0SQUDEdODp6,"Bv. Chacabuco 700 Ciudad de Cordoba, Provincia de Córdoba, Argentina",1/4/2018,Nueva Cordoba,Ciudad de Cordoba,Mercado Central,Central,Bv. Chacabuco,669,FORMA PARTE DE UN PH ,79.00,1,2 y 1/2,ESTANDAR,58000,-31.42553410,-64.18332620
recT9VZJOWPldiuwv,"Dr. Francisco Muñiz 800 Rio Cuarto, Provincia de Córdoba, Argentina",1/4/2018,Banda Norte,Rio Cuarto,,,Dr. Francisco Muñiz,800,EDIFICIO DE DEPARTAMENTOS,48.66,8,1,ESTANDAR,58200,-33.11175300,-64.32800900
recCDi7tkBm84R9no,"Bv San Juan 900 Ciudad de Cordoba, Provincia de Córdoba, Argentina",1/4/2019,Observatorio,Ciudad de Cordoba,Mercado Central,Central,Bv San Juan,879,EDIFICIO DE DEPARTAMENTOS,43.65,7,1,ESTANDAR,59000,-31.41752390,-64.19779780
recsGFeW8uURMvAeV,"27 de Abril 1200 Ciudad de Cordoba, Provincia de Córdoba, Argentina",6/9/2021,Alberdi,Ciudad de Cordoba,Mercado Central,Central,27 de Abril,1188,EDIFICIO DE DEPARTAMENTOS,61.60,6,2,ESTANDAR,59000,-31.41223430,-64.20057800
recrMsBGxRl2ZbTFm,"Bv. Chacabuco 700 Ciudad de Cordoba, Provincia de Córdoba, Argentina",1/4/2019,Nueva Cordoba,Ciudad de Cordoba,Mercado Central,Central,Bv. Chacabuco,653,EDIFICIO DE DEPARTAMENTOS,94.00,1,3,ESTANDAR,59000,-31.42553410,-64.18332620
reciyDvtJm8IoNWTb,"Bv Illia 500 Ciudad de Cordoba, Provincia de Córdoba, Argentina",1/4/2018,Nueva Cordoba,Ciudad de Cordoba,Mercado Central,Central,Bv Illia,451,EDIFICIO DE DEPARTAMENTOS,35.00,14,1,ESTANDAR,59500,-31.42292910,-64.17929520
recUiA8TMNTaEABqM,"Fructuoso Rivera 200 Ciudad de Cordoba, Provincia de Córdoba, Argentina",6/9/2021,Nueva Cordoba,Ciudad de Cordoba,Mercado Central,Central,Fructuoso Rivera,150,EDIFICIO DE DEPARTAMENTOS,41.65,3,1,ESTANDAR,59500,-31.42575030,-64.19093040
recu5lGb97MtzDNmX,"Justo Jose Urquiza 1500 Ciudad de Cordoba, Provincia de Córdoba, Argentina",1/4/2018,Cofico,Ciudad de Cordoba,Centroamérica,Central,Justo Jose Urquiza,1480,EDIFICIO DE DEPARTAMENTOS,63.30,5,1 y 1/2,ESTANDAR,59500,-31.39746350,-64.18794550
recpuLin0NHoQYj5q,"Lima 1000 Ciudad de Cordoba, Provincia de Córdoba, Argentina",1/4/2019,General Paz,Ciudad de Cordoba,Pueyrredon,Este,Lima,987,EDIFICIO DE DEPARTAMENTOS,47.32,6,1,ESTANDAR,59900,-31.41351560,-64.16988170
recs93nQk8GXuZVYB,"Bv Illia 400 Ciudad de Cordoba, Provincia de Córdoba, Argentina",6/9/2021,Nueva Cordoba,Ciudad de Cordoba,Mercado Central,Central,Bv Illia,362,EDIFICIO DE DEPARTAMENTOS,40.00,5,1,PREMIUM,60000,-31.42252820,-64.18076390
recTjhI9nidiI3J6a,"Balcarce 500 Ciudad de Cordoba, Provincia de Córdoba, Argentina",1/4/2020,Nueva Cordoba,Ciudad de Cordoba,Mercado Central,Central,Balcarce,451,EDIFICIO DE DEPARTAMENTOS,41.65,1,1,ESTANDAR,60000,-31.42456020,-64.17869810
recAda9zze0LQzxNG,"Av Velez Sarsfield 800 Ciudad de Cordoba, Provincia de Córdoba, Argentina",1/4/2018,Nueva Cordoba,Ciudad de Cordoba,Mercado Central,Central,Av Velez Sarsfield,762,EDIFICIO DE DEPARTAMENTOS,41.99,2,1,ESTANDAR,60000,-31.42472590,-64.19088850
rec9EZ51ZvWR1wt8S,"Luis Agote 1900 Ciudad de Cordoba, Provincia de Córdoba, Argentina",1/4/2018,Avenida,Ciudad de Cordoba,Ruta 20,Oeste-R20,Luis Agote,1833,EDIFICIO DE DEPARTAMENTOS,42.32,2,1,PREMIUM,60000,-31.42670580,-64.21403190
recPqtzSR70tilERp,"Luis Agote 1900 Ciudad de Cordoba, Provincia de Córdoba, Argentina",9/8/2022,Avenida,Ciudad de Cordoba,Ruta 20,Oeste-R20,Luis Agote,1833,EDIFICIO DE DEPARTAMENTOS,42.32,1,1,PREMIUM,60000,-31.42670580,-64.21403190
recZXB4K7CnWbUysd,"Buenos Aires 1500 Ciudad de Cordoba, Provincia de Córdoba, Argentina",1/4/2018,Nueva Cordoba,Ciudad de Cordoba,Mercado Central,Central,Buenos Aires,1500,EDIFICIO DE DEPARTAMENTOS,42.80,PLANTA BAJA,1,ESTANDAR,60000,-31.43325050,-64.18983970
recfJ2qP0z7PXIbGo,"Buenos Aires  1500 Ciudad de Cordoba, Provincia de Córdoba, Argentina",1/4/2020,Nueva Cordoba,Ciudad de Cordoba,Mercado Central,Central,Buenos Aires ,1490,EDIFICIO DE DEPARTAMENTOS,44.12,1,1,ESTANDAR,60000,-31.43325050,-64.18983970
recZYFvhDTdVLRNXB,"Fructuoso Rivera 100 Ciudad de Cordoba, Provincia de Córdoba, Argentina",6/9/2021,Nueva Cordoba,Ciudad de Cordoba,Mercado Central,Central,Fructuoso Rivera,69,EDIFICIO DE DEPARTAMENTOS,44.13,9,1,ESTANDAR,60000,-31.42626270,-64.18988250
recYqDRvb2Rw5A8fm,"Bv Peron  1200 Ciudad de Cordoba, Provincia de Córdoba, Argentina",1/4/2019,Crisol Norte,Ciudad de Cordoba,Empalme,Este,Bv Peron ,1150,COMPLEJO CERRADO,56.65,8,1,ESTANDAR,60000,-31.42505090,-64.16906020
recFWTcLPsj97ogsB,"Rondeau 300 Ciudad de Cordoba, Provincia de Córdoba, Argentina",1/4/2018,Nueva Cordoba,Ciudad de Cordoba,Mercado Central,Central,Rondeau,232,EDIFICIO DE DEPARTAMENTOS,57.98,7,1,PREMIUM,60000,-31.42327610,-64.18278420
recCyUd0wk6rZV5jL,"Transito Caceres de Allende 500 Ciudad de Cordoba, Provincia de Córdoba, Argentina",1/4/2019,Nueva Cordoba,Ciudad de Cordoba,Mercado Central,Central,Transito Caceres de Allende,430,EDIFICIO DE DEPARTAMENTOS,43.99,2,1,ESTANDAR,60500,-31.42483900,-64.17737800
recM3huI7z8WTN2bS,"Buenos Aires 1500 Ciudad de Cordoba, Provincia de Córdoba, Argentina",1/4/2018,Nueva Cordoba,Ciudad de Cordoba,Mercado Central,Central,Buenos Aires,1490,EDIFICIO DE DEPARTAMENTOS,42.41,2,1,ESTANDAR,60600,-31.43325050,-64.18983970
recxOwxx7axLw4qke,"Finlay 124 200 Villa Carlos Paz, Provincia de Córdoba, Argentina",12/7/2023,Centro,Villa Carlos Paz,,,Finlay 124,126,EDIFICIO DE DEPARTAMENTOS,33.00,3,1,ESTANDAR,61000,-31.42403580,-64.49919030
recFWpsMBkMq1FKoV,"Av Velez Sarsfield 1100 Ciudad de Cordoba, Provincia de Córdoba, Argentina",6/9/2021,Guemes,Ciudad de Cordoba,Mercado Central,Central,Av Velez Sarsfield,1050,COMPLEJO CERRADO,40.33,20 o superior,1,ESTANDAR,61000,-31.42783660,-64.19212120
recekNYfMCNLvjUNd,"SOL DE MAYO 1400 Ciudad de Cordoba, Provincia de Córdoba, Argentina",1/4/2018,Los Naranjos,Ciudad de Cordoba,Ruta 20,Oeste-R20,SOL DE MAYO,1366,EDIFICIO DE DEPARTAMENTOS,42.66,1,1,PREMIUM,61000,-31.42718800,-64.21333570
recvynJy8Ts8zRRlD,"Peredo 200 Ciudad de Cordoba, Provincia de Córdoba, Argentina",1/4/2020,Nueva Cordoba,Ciudad de Cordoba,Mercado Central,Central,Peredo,173,EDIFICIO DE DEPARTAMENTOS,45.64,3,1,ESTANDAR,61000,-31.42858550,-64.18485240
rec51ArpEnSfz4EQJ,"Obispo Salguero 500 Ciudad de Cordoba, Provincia de Córdoba, Argentina",1/4/2020,Nueva Cordoba,Ciudad de Cordoba,Mercado Central,Central,Obispo Salguero,479,EDIFICIO DE DEPARTAMENTOS,48.30,9,1,ESTANDAR,61000,-31.42370700,-64.18148400
recSZoplW9JpRwPCh,"Buenos Aires 600 Ciudad de Cordoba, Provincia de Córdoba, Argentina",6/9/2021,Nueva Cordoba,Ciudad de Cordoba,Mercado Central,Central,Buenos Aires,560,EDIFICIO DE DEPARTAMENTOS,50.00,3,2,ESTANDAR,61000,-31.42341920,-64.18586000
recGYcOftUH7QfR5y,"Sucre  1600 Ciudad de Cordoba, Provincia de Córdoba, Argentina",12/12/2023,Cofico,Ciudad de Cordoba,Centroamérica,Central,Sucre ,1540,EDIFICIO DE DEPARTAMENTOS,58.66,1,2,ESTANDAR,61000,-31.39824730,-64.18219040
recnQAuxuW9cwA7aI,"Dr. Francisco Muñiz 800 Rio Cuarto, Provincia de Córdoba, Argentina",1/4/2019,Banda Norte,Rio Cuarto,,,Dr. Francisco Muñiz,800,EDIFICIO DE DEPARTAMENTOS,48.66,11,1,ESTANDAR,61292,-33.11175300,-64.32800900
recaQBspgIj0aGQWm,"SOL DE MAYO  1400 Ciudad de Cordoba, Provincia de Córdoba, Argentina",12/11/2023,Avenida,Ciudad de Cordoba,Ruta 20,Oeste-R20,SOL DE MAYO ,1375,COMPLEJO CERRADO,46.12,3,1,PREMIUM,61500,-31.42718800,-64.21333570
recZdIOhv5Mz7gF9b,"Av Estrada 200 Ciudad de Cordoba, Provincia de Córdoba, Argentina",1/4/2018,Nueva Cordoba,Ciudad de Cordoba,Mercado Central,Central,Av Estrada,199,EDIFICIO DE DEPARTAMENTOS,50.66,2,2,ESTANDAR,61500,-31.42845220,-64.18563420
recl6HxmGBFkAvcHm,"Av Velez Sarsfield 1900 Ciudad de Cordoba, Provincia de Córdoba, Argentina",1/4/2018,Guemes,Ciudad de Cordoba,Mercado Central,Central,Av Velez Sarsfield,1802,EDIFICIO DE DEPARTAMENTOS,66.32,1,2,ESTANDAR,61500,-31.43636070,-64.19545710
recaVlgpy5PNhNhBF,"Lima 1000 Ciudad de Cordoba, Provincia de Córdoba, Argentina",1/4/2018,General Paz,Ciudad de Cordoba,Pueyrredon,Este,Lima,1000,EDIFICIO DE DEPARTAMENTOS,38.66,7,1,ESTANDAR,62000,-31.41351560,-64.16988170
recr0teKvL6FumrfE,"Buenos Aires 900 Ciudad de Cordoba, Provincia de Córdoba, Argentina",6/9/2021,Nueva Cordoba,Ciudad de Cordoba,Mercado Central,Central,Buenos Aires,891,EDIFICIO DE DEPARTAMENTOS,40.00,3,1,ESTANDAR,62000,-31.42772670,-64.18733220
recsJW4lZo8OfxZPL,"Balcarce 500 Ciudad de Cordoba, Provincia de Córdoba, Argentina",1/4/2018,Nueva Cordoba,Ciudad de Cordoba,Mercado Central,Central,Balcarce,451,EDIFICIO DE DEPARTAMENTOS,41.65,1,1,ESTANDAR,62000,-31.42456020,-64.17869810
reckGCxznMBQRGaJe,"Fructuoso Rivera 200 Ciudad de Cordoba, Provincia de Córdoba, Argentina",6/9/2021,Nueva Cordoba,Ciudad de Cordoba,Mercado Central,Central,Fructuoso Rivera,150,EDIFICIO DE DEPARTAMENTOS,42.64,6,1,ESTANDAR,62000,-31.42575030,-64.19093040
recEpbz6J9pNK8en7,"SOL DE MAYO  1400 Ciudad de Cordoba, Provincia de Córdoba, Argentina",12/11/2023,Avenida,Ciudad de Cordoba,Ruta 20,Oeste-R20,SOL DE MAYO ,1375,COMPLEJO CERRADO,42.72,3,1,PREMIUM,62000,-31.42718800,-64.21333570
recikNQu28oeRC09a,"Rondeau 600 Ciudad de Cordoba, Provincia de Córdoba, Argentina",12/12/2023,Nueva Cordoba,Ciudad de Cordoba,Mercado Central,Central,Rondeau,548,EDIFICIO DE DEPARTAMENTOS,43.30,13,1,ESTANDAR,62000,-31.42457680,-64.17870390
recSN8GpeG0MYEGG6,"Buenos Aires 900 Ciudad de Cordoba, Provincia de Córdoba, Argentina",2/2/2022,Nueva Cordoba,Ciudad de Cordoba,Mercado Central,Central,Buenos Aires,891,EDIFICIO DE DEPARTAMENTOS,43.66,6,1,ESTANDAR,62000,-31.42772670,-64.18733220
recLsNfrWNG7EmZ5a,"Chacabuco 700 Ciudad de Cordoba, Provincia de Córdoba, Argentina",8/3/2023,Nueva Cordoba,Ciudad de Cordoba,Mercado Central,Central,Chacabuco,660,EDIFICIO DE DEPARTAMENTOS,44.65,8,1,ESTANDAR,62000,-31.42553410,-64.18332620
recJmnYelrgxJGrVI,"Av Velez Sarsfield 1400 Ciudad de Cordoba, Provincia de Córdoba, Argentina",1/4/2019,Guemes,Ciudad de Cordoba,Mercado Central,Central,Av Velez Sarsfield,1390,EDIFICIO DE DEPARTAMENTOS,46.00,3,1,ESTANDAR,62000,-31.43156440,-64.19377040
reckw84W2vw9M0hI4,"La Plata 100 La Falda, Provincia de Córdoba, Argentina",1/4/2020,Centro,La Falda,,,La Plata,58,EDIFICIO DE DEPARTAMENTOS,55.38,1,1 y 1/2,PREMIUM,62000,-31.09179470,-64.48154090
recJ1d0Ijaws6B2DA,"Autopista Cordoba Carlos Paz  100 Malagueño, Provincia de Córdoba, Argentina",1/4/2020,crear barrio,Malagueño,,,Autopista Cordoba Carlos Paz ,20,COMPLEJO CERRADO,59.98,3,1,PREMIUM,62000,-31.41911960,-64.44874990
recSKDjdoAjzHTbuD,"Güemes 600 Ciudad de Cordoba, Provincia de Córdoba, Argentina",9/7/2021,General Paz,Ciudad de Cordoba,Pueyrredon,Este,Güemes,600,EDIFICIO DE DEPARTAMENTOS,62.40,3,2,ESTANDAR,62000,-31.41275970,-64.16081850
recmzpJr3m9Jn3Pzt,"9 de julio 900 Ciudad de Cordoba, Provincia de Córdoba, Argentina",1/4/2018,Alberdi,Ciudad de Cordoba,Mercado Central,Central,9 de julio,832,EDIFICIO DE DEPARTAMENTOS,75.32,6,3,ESTANDAR,62000,-31.41115640,-64.19582070
recXWdGs6RGswo1QF,"Av Velez Sarsfield 800 Ciudad de Cordoba, Provincia de Córdoba, Argentina",1/4/2019,Guemes,Ciudad de Cordoba,Mercado Central,Central,Av Velez Sarsfield,762,EDIFICIO DE DEPARTAMENTOS,42.59,6,1,ESTANDAR,62200,-31.42472590,-64.19088850
rec5J1kRual73lSsj,"Hipolito Yrigoyen 500 Ciudad de Cordoba, Provincia de Córdoba, Argentina",1/4/2020,Nueva Cordoba,Ciudad de Cordoba,Mercado Central,Central,Hipolito Yrigoyen,413,EDIFICIO DE DEPARTAMENTOS,42.00,1,1,ESTANDAR,62500,-31.42682360,-64.18584350
rec4sqYax0jYELKoZ,"SOL DE MAYO  1400 Ciudad de Cordoba, Provincia de Córdoba, Argentina",12/11/2023,Avenida,Ciudad de Cordoba,Ruta 20,Oeste-R20,SOL DE MAYO ,1375,COMPLEJO CERRADO,42.72,2,1,PREMIUM,62500,-31.42718800,-64.21333570
rece8kXEsHzGmiZxr,"Santa Rosa 0 Ciudad de Cordoba, Provincia de Córdoba, Argentina",1/4/2018,Alberdi,Ciudad de Cordoba,Mercado Central,Central,Santa Rosa,0,EDIFICIO DE DEPARTAMENTOS,47.00,7,1,ESTANDAR,62500,-31.41240390,-64.18262280
recMJBWeI4D85MG8o,"Ovidio Lagos 400 Ciudad de Cordoba, Provincia de Córdoba, Argentina",1/4/2018,General Paz,Ciudad de Cordoba,Pueyrredon,Este,Ovidio Lagos,394,EDIFICIO DE DEPARTAMENTOS,47.32,2,1,ESTANDAR,62500,-31.41320200,-64.17271930
rec5CyfTyGxlHIQ11,"JOREGE LUIS BORGES 400 La Calera, Provincia de Córdoba, Argentina",9/7/2023,Altos de La Calera,La Calera,,,JOREGE LUIS BORGES,400,EDIFICIO DE DEPARTAMENTOS,59.31,1,2,ESTANDAR,62500,-31.36197960,-64.34008920
reccaiffaUisp0Lli,"Bv Chacabuco 1300 Ciudad de Cordoba, Provincia de Córdoba, Argentina",1/4/2019,Nueva Cordoba,Ciudad de Cordoba,Mercado Central,Central,Bv Chacabuco,1240,EDIFICIO DE DEPARTAMENTOS,42.00,5,1,ESTANDAR,62900,-31.43219740,-64.18646810
reckWTKFg7zeJ6bBg,"FRUCTUOSO RIVERA 200 Ciudad de Cordoba, Provincia de Córdoba, Argentina",7/7/2024,Nueva Cordoba,Ciudad de Cordoba,Mercado Central,Central,FRUCTUOSO RIVERA,200,EDIFICIO DE DEPARTAMENTOS,40.99,8,1,ESTANDAR,63000,-31.42575030,-64.19093040
rec9cHEMWbId4EWnI,"Fructuoso Rivera 200 Ciudad de Cordoba, Provincia de Córdoba, Argentina",6/9/2021,Nueva Cordoba,Ciudad de Cordoba,Mercado Central,Central,Fructuoso Rivera,150,EDIFICIO DE DEPARTAMENTOS,45.21,1,1,ESTANDAR,63000,-31.42575030,-64.19093040
recV65EEEyz1qGTrj,"SOL DE MAYO  1400 Ciudad de Cordoba, Provincia de Córdoba, Argentina",12/11/2023,Avenida,Ciudad de Cordoba,Ruta 20,Oeste-R20,SOL DE MAYO ,1375,COMPLEJO CERRADO,45.32,2,1,PREMIUM,63000,-31.42718800,-64.21333570
recfTfnppA4Vrfw5K,"SOL DE MAYO  1400 Ciudad de Cordoba, Provincia de Córdoba, Argentina",12/11/2023,Avenida,Ciudad de Cordoba,Ruta 20,Oeste-R20,SOL DE MAYO ,1375,COMPLEJO CERRADO,46.22,2,1,PREMIUM,63000,-31.42718800,-64.21333570
rec6697Vb0Ot26UKX,"Independencia 500 Ciudad de Cordoba, Provincia de Córdoba, Argentina",1/4/2018,Nueva Cordoba,Ciudad de Cordoba,Mercado Central,Central,Independencia,408,EDIFICIO DE DEPARTAMENTOS,55.00,9,2,ESTANDAR,63000,-31.42204800,-64.18667840
reczAIyuJwXCJK8ZJ,"9 de Julio 800 Ciudad de Cordoba, Provincia de Córdoba, Argentina",12/7/2023,Centro Sud (Av Colon hacia Nva Cba),Ciudad de Cordoba,Mercado Central,Central,9 de Julio,800,EDIFICIO DE DEPARTAMENTOS,78.98,2,3,ESTANDAR,63000,-31.41179170,-64.19424340
reczvCBhbcb9hMNGh,"Dr. Francisco Muñiz 800 Rio Cuarto, Provincia de Córdoba, Argentina",8/1/2023,Banda Norte,Rio Cuarto,,,Dr. Francisco Muñiz,800,EDIFICIO DE DEPARTAMENTOS,48.66,17,1,ESTANDAR,63400,-33.11175300,-64.32800900
recrE2oL1J6cGKweN,"Fructuoso Rivera  400 Ciudad de Cordoba, Provincia de Córdoba, Argentina",1/4/2020,Guemes,Ciudad de Cordoba,Mercado Central,Central,Fructuoso Rivera ,400,EDIFICIO DE DEPARTAMENTOS,43.99,12,1,PREMIUM,63500,-31.42481430,-64.19398620
recQL5KFvDkjMXOty,"Obispo Trejo  1300 Ciudad de Cordoba, Provincia de Córdoba, Argentina",1/4/2018,Nueva Cordoba,Ciudad de Cordoba,Mercado Central,Central,Obispo Trejo ,1300,EDIFICIO DE DEPARTAMENTOS,40.65,2,1,ESTANDAR,64000,-31.43074620,-64.19183820
recEdYZMqh805g1ah,"OBISPO TREJO 1200 Ciudad de Cordoba, Provincia de Córdoba, Argentina",5/8/2024,Nueva Cordoba,Ciudad de Cordoba,Mercado Central,Central,OBISPO TREJO,1119,EDIFICIO DE DEPARTAMENTOS,42.92,2,1,ESTANDAR,64000,-31.42943440,-64.19126970
recO7VgONi1rk5SJc,"Ovidio Lagos 400 Ciudad de Cordoba, Provincia de Córdoba, Argentina",1/4/2018,General Paz,Ciudad de Cordoba,Pueyrredon,Este,Ovidio Lagos,354,EDIFICIO DE DEPARTAMENTOS,43.99,2,1,ESTANDAR,64000,-31.41320200,-64.17271930
recGeSKLwa3CEm3hi,"Cerro Blanco 700 Villa Carlos Paz, Provincia de Córdoba, Argentina",1/4/2019,Miguel Muñoz,Villa Carlos Paz,,,Cerro Blanco,651,EDIFICIO DE DEPARTAMENTOS,44.00,1,1,ESTANDAR,64000,-31.42549830,-64.50344180
recTXbmdvipmds5Us,"Vieytes 1400 Ciudad de Cordoba, Provincia de Córdoba, Argentina",1/4/2019,Avenida,Ciudad de Cordoba,Ruta 20,Oeste-R20,Vieytes,1313,COMPLEJO CERRADO,48.00,2,1,PREMIUM,64000,-31.42617000,-64.21831380
recN0oGNdZb0hEzZU,"Ituzaingo 700 Ciudad de Cordoba, Provincia de Córdoba, Argentina",4/12/2024,Nueva Cordoba,Ciudad de Cordoba,Mercado Central,Central,Ituzaingo,689,EDIFICIO DE DEPARTAMENTOS,50.00,7,1,ESTANDAR,64000,-31.42521440,-64.18501750
reclVaymTeO2H1o7U,"La Plata 100 La Falda, Provincia de Córdoba, Argentina",1/4/2019,Centro,La Falda,,,La Plata,58,EDIFICIO DE DEPARTAMENTOS,54.00,PLANTA BAJA,1,PREMIUM,64000,-31.09179470,-64.48154090
recmWMP9Dppwbnz6L,"Av Colon  5000 Ciudad de Cordoba, Provincia de Córdoba, Argentina",1/4/2019,Teodoro Felds,Ciudad de Cordoba,Colón,Oeste,Av Colon ,4933,COMPLEJO CERRADO,55.65,PLANTA BAJA,1,ESTANDAR,64000,-31.39567790,-64.24593590
recOdjdFeitcIxoKJ,"Fructuoso Rivera 200 Ciudad de Cordoba, Provincia de Córdoba, Argentina",6/9/2021,Nueva Cordoba,Ciudad de Cordoba,Mercado Central,Central,Fructuoso Rivera,150,EDIFICIO DE DEPARTAMENTOS,44.64,5,1,ESTANDAR,64400,-31.42575030,-64.19093040
recZ8zexWGTpOQfej,"Dr. Francisco Muñiz 800 Rio Cuarto, Provincia de Córdoba, Argentina",1/4/2018,Banda Norte,Rio Cuarto,,,Dr. Francisco Muñiz,800,EDIFICIO DE DEPARTAMENTOS,48.66,11,1,ESTANDAR,64400,-33.11175300,-64.32800900
recO3c9exnkICykbK,"Av Pueyrredon 300 Ciudad de Cordoba, Provincia de Córdoba, Argentina",1/4/2019,Nueva Cordoba,Ciudad de Cordoba,Mercado Central,Central,Av Pueyrredon,285,EDIFICIO DE DEPARTAMENTOS,43.65,7,1,ESTANDAR,64500,-31.42591750,-64.19302440
recSCBL7fEcPOc1qz,"Bv. San Juan 400 Ciudad de Cordoba, Provincia de Córdoba, Argentina",8/3/2023,Nueva Cordoba,Ciudad de Cordoba,Mercado Central,Central,Bv. San Juan,373,EDIFICIO DE DEPARTAMENTOS,53.32,6,1,ESTANDAR,64800,-31.41923460,-64.19157630
recYsrlZMSg1ENsL7,"Buenos Aires 1100 Ciudad de Cordoba, Provincia de Córdoba, Argentina",1/4/2018,Nueva Cordoba,Ciudad de Cordoba,Mercado Central,Central,Buenos Aires,1053,EDIFICIO DE DEPARTAMENTOS,47.65,4,1,ESTANDAR,64900,-31.42931200,-64.18824370
recbV2uWkejj8PQj3,"Perú 200 Ciudad de Cordoba, Provincia de Córdoba, Argentina",1/4/2018,Nueva Cordoba,Ciudad de Cordoba,Mercado Central,Central,Perú,160,EDIFICIO DE DEPARTAMENTOS,41.65,3,1,ESTANDAR,65000,-31.42927180,-64.19264340
recfQk82FnmCjadZc,"Ayacucho 300 Ciudad de Cordoba, Provincia de Córdoba, Argentina",12/7/2023,Centro Sud (Av Colon hacia Nva Cba),Ciudad de Cordoba,Mercado Central,Central,Ayacucho,300,EDIFICIO DE DEPARTAMENTOS,42.99,7,1,ESTANDAR,65000,-31.41802410,-64.19106890
recP5YCgnfw3KxWEE,"Rondeau 300 Ciudad de Cordoba, Provincia de Córdoba, Argentina",1/4/2019,Nueva Cordoba,Ciudad de Cordoba,Mercado Central,Central,Rondeau,232,EDIFICIO DE DEPARTAMENTOS,43.98,6,1,ESTANDAR,65000,-31.42327610,-64.18278420
rec1EO9fv7XINxZDZ,"Obispo oro 400 Ciudad de Cordoba, Provincia de Córdoba, Argentina",1/4/2019,Nueva Cordoba,Ciudad de Cordoba,Mercado Central,Central,Obispo oro,347,EDIFICIO DE DEPARTAMENTOS,45.99,7,1,ESTANDAR,65000,-31.42611330,-64.18248690
rectuEUXDlpW2RkAJ,"General Deheza 1000 Ciudad de Cordoba, Provincia de Córdoba, Argentina",12/12/2023,General Pueyrredon,Ciudad de Cordoba,Pueyrredon,Este,General Deheza,925,EDIFICIO DE DEPARTAMENTOS,60.99,1,2,ESTANDAR,65000,-31.40444890,-64.16546920
recrPtXvcT3S1mzSi,"Fructuoso Rivera 200 Ciudad de Cordoba, Provincia de Córdoba, Argentina",6/9/2021,Nueva Cordoba,Ciudad de Cordoba,Mercado Central,Central,Fructuoso Rivera,150,EDIFICIO DE DEPARTAMENTOS,72.40,7,2,ESTANDAR,65000,-31.42575030,-64.19093040
recvJcRsZfkWMOXgk,"Fructuoso Rivera 200 Ciudad de Cordoba, Provincia de Córdoba, Argentina",6/9/2021,Nueva Cordoba,Ciudad de Cordoba,Mercado Central,Central,Fructuoso Rivera,150,EDIFICIO DE DEPARTAMENTOS,72.40,6,2,ESTANDAR,65000,-31.42575030,-64.19093040
recqrntbZaaJG56CK,"Caseros  300 Ciudad de Cordoba, Provincia de Córdoba, Argentina",5/6/2024,Centro Sud (Av Colon hacia Nva Cba),Ciudad de Cordoba,Mercado Central,Central,Caseros ,208,EDIFICIO DE DEPARTAMENTOS,99.95,5,3,ESTANDAR,65000,-31.41701650,-64.18900110
recRk1T3dwlyGe8OJ,"Dr. Francisco Muñiz 800 Rio Cuarto, Provincia de Córdoba, Argentina",8/1/2023,Banda Norte,Rio Cuarto,,,Dr. Francisco Muñiz,800,EDIFICIO DE DEPARTAMENTOS,48.66,11,1,ESTANDAR,65200,-33.11175300,-64.32800900
recr4loNeIOFTBpVJ,"Dr. Francisco Muñiz 800 Rio Cuarto, Provincia de Córdoba, Argentina",1/4/2018,Banda Norte,Rio Cuarto,,,Dr. Francisco Muñiz,800,EDIFICIO DE DEPARTAMENTOS,52.66,8,1,ESTANDAR,65200,-33.11175300,-64.32800900
recJmk1INM5weXs98,"Av Colon  5000 Ciudad de Cordoba, Provincia de Córdoba, Argentina",12/7/2023,Teodoro Felds,Ciudad de Cordoba,Colón,Oeste,Av Colon ,4933,COMPLEJO CERRADO,57.32,3,2,ESTANDAR,66000,-31.39567790,-64.24593590
rec1kDYOofDj31GrX,"Fructuoso Rivera 200 Ciudad de Cordoba, Provincia de Córdoba, Argentina",1/4/2018,Nueva Cordoba,Ciudad de Cordoba,Mercado Central,Central,Fructuoso Rivera,150,EDIFICIO DE DEPARTAMENTOS,47.98,6,1,ESTANDAR,66240,-31.42575030,-64.19093040
recfyZXPQY1pHqRtG,"Fructuoso Rivera 200 Ciudad de Cordoba, Provincia de Córdoba, Argentina",1/4/2018,Nueva Cordoba,Ciudad de Cordoba,Mercado Central,Central,Fructuoso Rivera,150,EDIFICIO DE DEPARTAMENTOS,42.64,6,1,ESTANDAR,66500,-31.42575030,-64.19093040
recbEv48NYdkVtS10,"Ovidio Lagos 300 Ciudad de Cordoba, Provincia de Córdoba, Argentina",6/9/2021,General Paz,Ciudad de Cordoba,Pueyrredon,Este,Ovidio Lagos,254,EDIFICIO DE DEPARTAMENTOS,45.99,2,1,ESTANDAR,66500,-31.41417000,-64.17231340
recFhxIdYhN5l04Bg,"Avenida 24 de Septiembre 1400 Ciudad de Cordoba, Provincia de Córdoba, Argentina",1/4/2018,General Paz,Ciudad de Cordoba,Pueyrredon,Este,Avenida 24 de Septiembre,1350,EDIFICIO DE DEPARTAMENTOS,42.99,4,1,ESTANDAR,67000,-31.41356810,-64.16483870
recyykOToZNzDVcGi,"Obispo Trejo 1200 Ciudad de Cordoba, Provincia de Córdoba, Argentina",1/4/2018,Nueva Cordoba,Ciudad de Cordoba,Mercado Central,Central,Obispo Trejo,1180,EDIFICIO DE DEPARTAMENTOS,43.00,9,1,PREMIUM,67000,-31.42943440,-64.19126970
recUSKM0K5SbfAEP8,"Fructuoso Rivera 200 Ciudad de Cordoba, Provincia de Córdoba, Argentina",1/4/2018,Nueva Cordoba,Ciudad de Cordoba,Mercado Central,Central,Fructuoso Rivera,150,EDIFICIO DE DEPARTAMENTOS,43.65,4,1,ESTANDAR,67000,-31.42575030,-64.19093040
recqP1wk5R8jBM0AD,"Fructuoso Rivera 200 Ciudad de Cordoba, Provincia de Córdoba, Argentina",1/4/2018,Nueva Cordoba,Ciudad de Cordoba,Mercado Central,Central,Fructuoso Rivera,150,EDIFICIO DE DEPARTAMENTOS,43.65,6,1,ESTANDAR,67000,-31.42575030,-64.19093040
rec3rycQf3p1aZXQG,"Av Velez Sarsfield 800 Ciudad de Cordoba, Provincia de Córdoba, Argentina",1/4/2018,Guemes,Ciudad de Cordoba,Mercado Central,Central,Av Velez Sarsfield,762,EDIFICIO DE DEPARTAMENTOS,47.32,8,1,ESTANDAR,67000,-31.42472590,-64.19088850
recHcSQGbWHWUrTWm,"Av Velez Sarsfield 800 Ciudad de Cordoba, Provincia de Córdoba, Argentina",1/4/2018,Guemes,Ciudad de Cordoba,Mercado Central,Central,Av Velez Sarsfield,764,EDIFICIO DE DEPARTAMENTOS,47.32,7,1,ESTANDAR,67000,-31.42472590,-64.19088850
recSHDLT65ZdO7OHR,"Fructuoso Rivera 200 Ciudad de Cordoba, Provincia de Córdoba, Argentina",6/9/2021,Nueva Cordoba,Ciudad de Cordoba,Mercado Central,Central,Fructuoso Rivera,150,EDIFICIO DE DEPARTAMENTOS,47.65,3,1,ESTANDAR,67000,-31.42575030,-64.19093040
recQNTpKrvlLZxqqj,"Fructuoso Rivera 200 Ciudad de Cordoba, Provincia de Córdoba, Argentina",6/9/2021,Nueva Cordoba,Ciudad de Cordoba,Mercado Central,Central,Fructuoso Rivera,150,EDIFICIO DE DEPARTAMENTOS,48.97,3,1,ESTANDAR,67000,-31.42575030,-64.19093040
receh6i3bmSznbZxM,"Luis Agote 1900 Ciudad de Cordoba, Provincia de Córdoba, Argentina",9/8/2022,Avenida,Ciudad de Cordoba,Ruta 20,Oeste-R20,Luis Agote,1833,EDIFICIO DE DEPARTAMENTOS,43.32,2,1,PREMIUM,67500,-31.42670580,-64.21403190
reccsYK9bntVLaRr8,"Crisol 200 Ciudad de Cordoba, Provincia de Córdoba, Argentina",1/4/2019,Nueva Cordoba,Ciudad de Cordoba,Mercado Central,Central,Crisol,152,EDIFICIO DE DEPARTAMENTOS,57.97,6,2,ESTANDAR,67500,-31.42928250,-64.18670370
recU9lWUb1dmoKYjK,"Velez Sarsfield  500 Ciudad de Cordoba, Provincia de Córdoba, Argentina",12/12/2023,Nueva Cordoba,Ciudad de Cordoba,Mercado Central,Central,Velez Sarsfield ,500,EDIFICIO DE DEPARTAMENTOS,65.99,3,2,ESTANDAR,67500,-31.42123860,-64.18947460
recpFUoUJJe5fDhKo,"Bv Peron  1200 Ciudad de Cordoba, Provincia de Córdoba, Argentina",5/7/2024,Crisol Norte,Ciudad de Cordoba,Empalme,Este,Bv Peron ,1150,EDIFICIO DE DEPARTAMENTOS,63.32,PLANTA BAJA,2,ESTANDAR,67800,-31.42505090,-64.16906020
recwvy24UnElxtp2k,"A. M. Bas 400 Ciudad de Cordoba, Provincia de Córdoba, Argentina",1/4/2019,Alberdi,Ciudad de Cordoba,Mercado Central,Central,A. M. Bas,396,EDIFICIO DE DEPARTAMENTOS,40.99,13,1,ESTANDAR,68000,-31.41857390,-64.19413130
recYmjLdcUA3NBsc3,"Fructuoso Rivera 200 Ciudad de Cordoba, Provincia de Córdoba, Argentina",6/9/2021,Nueva Cordoba,Ciudad de Cordoba,Mercado Central,Central,Fructuoso Rivera,150,EDIFICIO DE DEPARTAMENTOS,42.00,3,1,ESTANDAR,68000,-31.42575030,-64.19093040
recdy5mbiJmSoh6sW,"Balcarce 500 Ciudad de Cordoba, Provincia de Córdoba, Argentina",6/9/2021,Nueva Cordoba,Ciudad de Cordoba,Mercado Central,Central,Balcarce,451,EDIFICIO DE DEPARTAMENTOS,45.00,6,1,ESTANDAR,68000,-31.42456020,-64.17869810
recDZAuqKT5CMAGF8,"Parana 700 Ciudad de Cordoba, Provincia de Córdoba, Argentina",1/4/2018,Nueva Cordoba,Ciudad de Cordoba,Mercado Central,Central,Parana,674,EDIFICIO DE DEPARTAMENTOS,46.65,6,1,ESTANDAR,68000,-31.42641060,-64.18091720
rec2KSUvLoilue6fn,"Peredo 100 Ciudad de Cordoba, Provincia de Córdoba, Argentina",1/4/2019,Nueva Cordoba,Ciudad de Cordoba,Mercado Central,Central,Peredo,45,EDIFICIO DE DEPARTAMENTOS,60.00,6,2,ESTANDAR,68000,-31.42858550,-64.18485240
recmi6vy4MOmkSUbI,"Crisol  100 Ciudad de Cordoba, Provincia de Córdoba, Argentina",12/7/2023,Nueva Cordoba,Ciudad de Cordoba,Mercado Central,Central,Crisol ,51,EDIFICIO DE DEPARTAMENTOS,71.00,10,1,ESTANDAR,68000,-31.42896790,-64.18830170
recvBXKod3I59VS0u,"VELEZ SARSFIELD  800 Ciudad de Cordoba, Provincia de Córdoba, Argentina",1/4/2018,Nueva Cordoba,Ciudad de Cordoba,Mercado Central,Central,VELEZ SARSFIELD ,762,EDIFICIO DE DEPARTAMENTOS,41.32,10,1,ESTANDAR,68500,-31.42472590,-64.19088850
recGhHXmAgBmxk4tN,"Av Pueyrredon 200 Ciudad de Cordoba, Provincia de Córdoba, Argentina",1/4/2020,Nueva Cordoba,Ciudad de Cordoba,Mercado Central,Central,Av Pueyrredon,110,EDIFICIO DE DEPARTAMENTOS,41.65,3,1,ESTANDAR,69000,-31.42643930,-64.19131790
recpZkH4xsKLhhCLn,"Fructuoso Rivera 200 Ciudad de Cordoba, Provincia de Córdoba, Argentina",6/9/2021,Nueva Cordoba,Ciudad de Cordoba,Mercado Central,Central,Fructuoso Rivera,150,EDIFICIO DE DEPARTAMENTOS,48.00,7,1,ESTANDAR,69000,-31.42575030,-64.19093040
reckv22rBqd5kvvrZ,"Fructuoso Rivera 200 Ciudad de Cordoba, Provincia de Córdoba, Argentina",6/9/2021,Nueva Cordoba,Ciudad de Cordoba,Mercado Central,Central,Fructuoso Rivera,150,EDIFICIO DE DEPARTAMENTOS,46.98,5,1,ESTANDAR,69500,-31.42575030,-64.19093040
recqEVQXbi3yRutQy,"Perú 200 Ciudad de Cordoba, Provincia de Córdoba, Argentina",1/4/2018,Nueva Cordoba,Ciudad de Cordoba,Mercado Central,Central,Perú,160,EDIFICIO DE DEPARTAMENTOS,42.64,1,1,ESTANDAR,70000,-31.42927180,-64.19264340
rec1wv5hKH6xqCudY,"Luis Agote 1100 Ciudad de Cordoba, Provincia de Córdoba, Argentina",1/4/2018,Maurizi,Ciudad de Cordoba,Mercado Central,Central,Luis Agote,1024,EDIFICIO DE DEPARTAMENTOS,43.65,2,1,ESTANDAR,70000,-31.42792460,-64.20876030
recFvilq2op75MtY0,"Derqui 100 Ciudad de Cordoba, Provincia de Córdoba, Argentina",1/4/2018,Nueva Cordoba,Ciudad de Cordoba,Mercado Central,Central,Derqui,55,EDIFICIO DE DEPARTAMENTOS,43.98,1,1,ESTANDAR,70000,-31.42611810,-64.18694390
recBVZ9ceTABQOEfF,"Chile 300 Ciudad de Cordoba, Provincia de Córdoba, Argentina",6/9/2021,Nueva Cordoba,Ciudad de Cordoba,Mercado Central,Central,Chile,215,EDIFICIO DE DEPARTAMENTOS,45.99,8,1,ESTANDAR,70000,-31.43106970,-64.18576840
recw1MbCJXt6JMN1d,"Perú 200 Ciudad de Cordoba, Provincia de Córdoba, Argentina",6/9/2021,Nueva Cordoba,Ciudad de Cordoba,Mercado Central,Central,Perú,160,EDIFICIO DE DEPARTAMENTOS,46.65,1,1,ESTANDAR,70000,-31.42927180,-64.19264340
rectvhwcZwxeS6fiY,"Chacabuco 700 Ciudad de Cordoba, Provincia de Córdoba, Argentina",12/12/2023,Nueva Cordoba,Ciudad de Cordoba,Mercado Central,Central,Chacabuco,660,EDIFICIO DE DEPARTAMENTOS,48.61,15,1,PREMIUM,70000,-31.42553410,-64.18332620
recMfYjvUwEMYa2VD,"Lima 1600 Ciudad de Cordoba, Provincia de Córdoba, Argentina",1/4/2020,General Paz,Ciudad de Cordoba,Pueyrredon,Este,Lima,1600,EDIFICIO DE DEPARTAMENTOS,53.04,5,1,PREMIUM,70000,-31.41159150,-64.16266230
recU49yNHlorbu8m9,"Duarte Quiros 4200 Ciudad de Cordoba, Provincia de Córdoba, Argentina",1/4/2018,Las Palmas,Ciudad de Cordoba,Colón,Oeste,Duarte Quiros,4200,COMPLEJO CERRADO,55.00,PLANTA BAJA,3,ESTANDAR,70000,-31.40322110,-64.23643040
receJVExAYUckg63X,"Obispo Salguero 700 Ciudad de Cordoba, Provincia de Córdoba, Argentina",12/7/2023,Nueva Cordoba,Ciudad de Cordoba,Mercado Central,Central,Obispo Salguero,700,EDIFICIO DE DEPARTAMENTOS,56.65,6,2,ESTANDAR,70000,-31.42589370,-64.18209660
recpy7Tkn1DtL4Unh,"Ituzaingo 700 Ciudad de Cordoba, Provincia de Córdoba, Argentina",1/4/2020,Nueva Cordoba,Ciudad de Cordoba,Mercado Central,Central,Ituzaingo,655,EDIFICIO DE DEPARTAMENTOS,57.65,4,1,ESTANDAR,70000,-31.42521440,-64.18501750
recbS65xeMTGDsvoK,"Bv Illia 400 Ciudad de Cordoba, Provincia de Córdoba, Argentina",1/4/2019,Nueva Cordoba,Ciudad de Cordoba,Mercado Central,Central,Bv Illia,357,EDIFICIO DE DEPARTAMENTOS,65.00,8,2,ESTANDAR,70000,-31.42252820,-64.18076390
recqwrE6xVAilFAIa,"Balcarce 600 Ciudad de Cordoba, Provincia de Córdoba, Argentina",6/9/2021,Nueva Cordoba,Ciudad de Cordoba,Mercado Central,Central,Balcarce,534,EDIFICIO DE DEPARTAMENTOS,66.65,5,2,ESTANDAR,70000,-31.42556480,-64.17910970
recjUyRjuIz2Fa37w,"chacabuco 700 Ciudad de Cordoba, Provincia de Córdoba, Argentina",1/4/2018,Nueva Cordoba,Ciudad de Cordoba,Mercado Central,Central,chacabuco,650,EDIFICIO DE DEPARTAMENTOS,70.00,3,2,ESTANDAR,70000,-31.42553410,-64.18332620
rec6dS7E4w7cuetu7,"Corrientes 500 Ciudad de Cordoba, Provincia de Córdoba, Argentina",1/4/2018,Centro Sud (Av Colon hacia Nva Cba),Ciudad de Cordoba,Mercado Central,Central,Corrientes,498,EDIFICIO DE DEPARTAMENTOS,74.65,4,2,ESTANDAR,70000,-31.41207200,-64.18844570
recPVBcjVCrZHrNB5,"Av Velez Sarsfield 1900 Ciudad de Cordoba, Provincia de Córdoba, Argentina",6/9/2021,Guemes,Ciudad de Cordoba,Mercado Central,Central,Av Velez Sarsfield,1802,EDIFICIO DE DEPARTAMENTOS,85.63,1,2,ESTANDAR,70000,-31.43636070,-64.19545710
rec1fYgrXR6QP2SZE,"Luis Agote 1900 Ciudad de Cordoba, Provincia de Córdoba, Argentina",9/8/2022,Avenida,Ciudad de Cordoba,Ruta 20,Oeste-R20,Luis Agote,1833,EDIFICIO DE DEPARTAMENTOS,41.80,PLANTA BAJA,1,PREMIUM,70500,-31.42670580,-64.21403190
reciH23P5rwyjV9ds,"Fructuoso Rivera 200 Ciudad de Cordoba, Provincia de Córdoba, Argentina",6/9/2021,Nueva Cordoba,Ciudad de Cordoba,Mercado Central,Central,Fructuoso Rivera,150,EDIFICIO DE DEPARTAMENTOS,47.98,8,1,ESTANDAR,70840,-31.42575030,-64.19093040
reciCLi6kVVaYyHwn,"Parana 700 Ciudad de Cordoba, Provincia de Córdoba, Argentina",1/4/2018,Nueva Cordoba,Ciudad de Cordoba,Mercado Central,Central,Parana,635,EDIFICIO DE DEPARTAMENTOS,45.66,13,1,ESTANDAR,71000,-31.42641060,-64.18091720
